time,smile,disgust,joy,pitch,yaw,roll,frame_x,frame_y,frame_width,frame_height,face_point_0,face_point_1,face_point_2,face_point_3,face_point_4,face_point_5,face_point_6,face_point_7,face_point_8,face_point_9,face_point_10,face_point_11,face_point_12,face_point_13,face_point_14,face_point_15,face_point_16,face_point_17,face_point_18,face_point_19,face_point_20,face_point_21,face_point_22,face_point_23,face_point_24,face_point_25,face_point_26,face_point_27,face_point_28,face_point_29,face_point_30,face_point_31,face_point_32,face_point_33
5.48E-05,0,0.43,0,-9.04,-10.15,-0.99,-0.27,1.73,131.83,135.75,34.34_85.03,45.35_106.31,65.05_114.86,84.17_105.48,95.18_84.97,36.58_49.52,45.75_47.63,55.55_50.48,73.56_50.64,83.53_47.42,93.52_49.50,65.21_59.65,65.30_74.06,57.56_79.39,65.40_79.94,73.05_79.27,40.87_59.65,55.35_60.46,74.51_60.54,88.55_59.59,52.27_97.79,62.25_92.00,65.52_93.24,68.89_92.10,77.49_97.58,71.86_101.41,65.13_103.21,58.12_101.53,65.61_96.70,65.14_98.48,48.11_56.67,48.20_62.12,81.59_56.70,81.77_61.97
0.232705116,,,,-5.79,-20.83,-26.49,,,,,,,,,,,,,,,,,,,,,,,,,,,,,,,,,,,,,,
0.471568108,,,,-22.25,-28.11,-10.42,,,,,,,,,,,,,,,,,,,,,,,,,,,,,,,,,,,,,,
0.716269016,,,,-20.28,-36.6,-0.31,,,,,,,,,,,,,,,,,,,,,,,,,,,,,,,,,,,,,,
0.935253143,0,0.42,0,-22.44,-27.88,-5.26,6.06,11.55,132.82,104.88,44.62_66.82,56.02_84.89,71.57_96.97,87.26_84.98,99.80_67.12,43.19_47.54,52.40_48.84,61.23_52.20,82.36_52.15,91.17_48.78,100.56_47.17,71.62_58.31,71.96_75.22,64.57_75.44,71.74_77.78,79.42_75.14,50.07_54.39,61.98_56.92,81.59_56.83,93.57_54.31,59.35_83.62,69.26_83.68,72.04_84.50,74.93_83.68,84.87_83.43,79.36_88.59,71.99_91.03,64.78_88.76,72.02_87.24,72.17_87.00,56.26_53.31,55.59_57.30,87.26_53.19,87.83_57.24
1.166843891,,,,-22.63,-21.44,3.51,,,,,,,,,,,,,,,,,,,,,,,,,,,,,,,,,,,,,,
1.406242847,,,,-24.85,-20.35,1.99,,,,,,,,,,,,,,,,,,,,,,,,,,,,,,,,,,,,,,
1.64963913,0.02,0.12,0,-22.92,-15.14,2.83,8.22,7.73,113.93,114.64,39.74_67.49,50.91_90.91,64.07_103.27,80.09_90.77,93.85_68.31,40.06_46.05,48.45_46.64,56.54_50.15,72.05_50.01,80.10_46.92,89.27_46.83,64.12_57.52,63.48_76.57,57.15_77.45,63.81_79.62,71.10_77.12,45.56_53.37,56.83_55.14,72.36_55.22,83.60_53.59,55.65_87.07,62.09_86.54,64.08_87.49,66.15_86.58,73.47_87.17,68.88_90.91,64.01_92.50,59.54_90.83,64.04_89.13,64.22_89.29,51.35_51.61,50.93_56.31,77.68_51.84,78.00_56.54
1.865638971,0,0.43,0,-22.91,-17.49,5.35,9.11,15.91,117.49,97.23,37.69_72.48,48.99_89.91,67.69_96.94,84.56_89.25,92.60_71.76,41.95_49.25,51.71_48.57,60.45_52.60,75.10_52.66,83.73_48.39,92.70_49.31,67.81_59.15,68.62_72.34,62.17_74.75,68.07_76.48,73.84_75.03,47.90_56.06,60.29_57.92,74.94_57.82,87.20_56.04,57.00_83.64,65.55_82.54,67.52_83.34,69.55_82.54,77.17_83.62,72.80_86.76,67.63_87.76,62.16_86.77,67.59_84.55,67.61_85.21,54.24_54.22,53.83_59.11,80.84_54.03,81.41_59.20
2.101204872,0.12,0.4,0,-18.57,-0.72,11.27,20.52,17.54,111.7,113.37,47.53_80.15,54.93_100.54,75.69_112.01,96.27_99.94,103.73_80.39,51.75_58.15,61.20_56.44,71.16_58.84,80.56_58.70,90.50_56.04,100.00_57.70,75.84_67.32,75.69_87.73,68.86_88.16,75.70_91.17,82.51_87.99,56.85_63.26,69.81_65.30,81.83_65.23,94.83_63.10,62.98_96.69,72.41_98.25,75.56_99.49,78.62_98.16,88.49_96.33,82.87_101.37,75.85_103.46,68.69_101.50,75.59_101.05,75.85_100.78,63.14_61.16,62.83_66.58,88.43_60.95,88.78_66.52
2.332746029,0,0.43,0,0.36,-13.21,9.5,15.57,8.85,138.91,165.66,51.42_109.40,61.44_134.46,83.09_146.91,107.50_134.36,119.92_110.10,54.40_69.08,63.99_63.32,75.23_66.77,91.73_67.02,103.44_63.29,114.40_68.56,83.49_77.25,82.23_95.31,73.87_100.62,82.75_102.74,92.09_100.86,59.26_79.06,74.16_79.72,93.76_79.49,108.86_78.92,65.90_119.46,78.58_114.03,82.73_115.28,86.87_114.18,99.37_119.78,92.35_125.64,82.26_128.18,72.48_125.78,82.94_119.33,82.56_122.79,66.52_76.09,66.35_81.26,101.16_75.86,101.54_81.04
2.566683054,0,0.42,0,-0.36,-12.55,-10.45,8.42,22.91,193.47,183.13,59.32_131.08,75.56_160.22,103.78_175.51,132.34_160.40,151.52_132.22,62.50_86.42,76.71_83.18,91.43_89.85,115.00_90.16,130.49_83.60,146.07_86.65,103.07_100.59,102.06_124.67,91.60_128.77,102.00_131.66,113.67_128.82,69.00_100.50,89.37_101.87,117.97_101.90,138.71_100.56,83.25_145.01,98.41_141.29,102.43_142.00,106.50_140.98,122.51_144.75,113.80_152.18,102.88_155.15,92.07_152.40,102.51_145.71,103.07_149.00,78.71_98.25,78.37_103.08,128.58_98.39,128.64_103.11
3.077612877,29.53,0.05,0.39,10.78,-17.34,-5.69,-30,-50.61,264.13,233.67,36.84_98.70,56.65_129.32,99.71_144.12,144.65_129.79,166.38_99.24,43.84_32.74,59.80_25.02,78.91_29.84,122.41_29.45,141.82_25.02,157.93_33.19,100.43_53.00,100.56_67.27,84.69_77.43,100.68_79.64,117.14_77.05,51.55_52.21,79.91_52.83,121.77_52.87,150.44_52.18,70.31_106.02,94.53_96.03,101.54_97.91,108.53_96.10,131.56_106.09,117.63_112.11,100.18_113.76,82.79_111.70,101.44_104.41,100.40_106.87,65.71_46.73,65.20_56.22,136.17_46.45,136.48_56.37
3.253968954,0,0.43,0,7.56,-11.65,3.64,22.28,-39.05,154.83,203.78,48.09_85.15,71.33_117.48,98.91_130.77,127.22_117.17,150.52_85.12,65.57_29.45,75.91_26.22,87.71_27.81,110.64_28.02,121.77_26.32,132.44_29.02,99.00_36.95,98.86_64.34,89.34_69.72,98.85_70.08,109.07_69.40,68.61_40.80,85.79_40.20,112.19_40.45,129.62_40.91,79.42_94.16,95.55_82.38,99.91_83.72,104.12_82.33,120.24_93.90,108.93_100.16,99.36_101.94,89.63_100.20,99.83_88.09,99.47_95.93,77.11_39.40,77.49_42.12,120.65_39.62,120.58_42.28
3.493273973,0,0.47,0,18.47,-5.97,1.12,8.25,-36.67,150.76,171.09,36.90_73.01,49.51_93.95,81.26_105.91,114.24_94.54,128.02_74.16,50.39_21.69,59.77_16.91,71.54_17.08,93.43_17.72,105.32_17.39,115.51_21.64,81.90_27.16,81.43_41.77,71.83_50.43,81.74_50.37,92.28_50.37,52.42_30.50,69.85_29.57,94.67_29.62,112.22_30.76,63.68_76.34,77.72_65.66,82.33_67.07,86.97_65.74,100.91_75.75,90.39_77.45,81.64_77.53,73.21_77.39,82.28_72.12,81.80_72.11,60.71_27.63,60.98_32.24,103.29_27.94,103.12_32.30
4.274652958,,,,2.03,-15.82,4.56,,,,,,,,,,,,,,,,,,,,,,,,,,,,,,,,,,,,,,
4.426808834,,,,8.77,-14,1.37,,,,,,,,,,,,,,,,,,,,,,,,,,,,,,,,,,,,,,
4.673513889,1.33,0.39,0,-0.41,-14.6,3.59,-5.69,-20.76,192.9,217.96,36.70_110.18,54.28_144.44,88.75_160.87,123.90_145.50,144.16_112.47,48.23_55.27,60.93_49.50,74.91_54.71,104.37_54.82,118.17_49.82,131.56_54.78,89.27_66.09,89.36_87.72,78.25_95.68,89.30_97.74,100.52_95.91,55.74_69.08,74.65_69.69,104.08_69.70,123.33_69.33,65.32_118.73,84.44_110.38,89.84_111.56,95.19_110.37,114.35_118.64,103.55_127.81,89.17_131.56,75.02_127.84,89.73_116.21,89.22_124.34,65.23_66.30,64.99_70.48,113.26_66.28,113.77_70.45
5.445093155,0,0.43,0,0.65,-2.26,-0.52,-6.59,3.12,149.06,167.79,30.08_106.49,43.75_131.77,68.37_142.94,91.03_130.85,103.95_106.13,35.08_61.56,46.26_58.77,58.25_62.78,76.83_63.17,88.63_59.21,99.47_62.18,67.42_71.93,68.05_92.68,58.40_98.35,67.77_99.77,77.08_98.41,40.35_73.03,56.82_74.26,77.77_74.43,94.46_73.40,51.90_118.20,64.14_112.03,67.71_113.59,71.34_112.26,82.99_118.00,75.84_123.09,67.99_125.73,59.67_123.10,67.81_117.35,67.92_120.13,48.71_70.39,48.43_75.85,85.94_70.63,86.14_76.14
5.591717005,0.01,0.43,0,9.42,-3.32,1.82,3.73,2.56,149.07,170.83,40.35_109.00,51.83_132.74,77.37_144.92,102.14_132.50,114.51_109.75,45.40_65.30,56.14_58.77,68.63_62.82,86.34_62.88,98.73_58.94,109.79_65.18,77.24_72.47,76.99_91.50,68.23_97.86,76.96_99.24,86.15_97.51,51.62_74.22,67.60_75.01,87.28_74.97,104.05_74.38,61.27_117.75,73.27_109.58,77.20_110.80,81.08_109.68,93.79_117.57,86.74_123.07,77.54_125.86,68.25_123.23,77.21_115.12,77.74_119.72,59.40_70.07,59.30_76.22,95.69_69.96,95.88_76.41
5.837147951,0.04,0.42,0,5.14,0.23,0.81,3.09,-0.23,150.18,171.13,41.32_105.12,53.12_129.89,77.79_142.38,101.78_129.59,114.34_105.61,45.07_62.13,55.89_56.44,68.09_60.40,86.57_60.40,99.05_56.47,109.94_62.04,77.07_69.88,76.76_89.73,68.11_95.71,76.93_97.36,86.08_95.39,51.54_71.41,67.53_72.59,87.49_72.39,103.94_71.42,61.47_115.83,73.48_108.62,77.34_109.82,81.20_108.65,93.71_115.45,86.49_121.54,77.55_124.52,68.64_121.75,77.47_114.03,77.71_118.36,59.37_67.44,59.22_73.83,95.79_67.25,95.96_73.91
6.066241026,0.99,0.4,0,5.39,-0.03,6.59,16,6.3,137.12,167,43.90_107.79,56.87_133.66,83.15_145.46,108.59_134.28,122.75_109.14,54.33_66.96,65.14_62.09,77.11_66.99,89.84_66.97,102.38_62.23,113.56_67.53,83.45_76.25,83.51_95.98,75.49_102.00,83.55_103.40,91.51_102.11,60.35_77.03,75.05_78.57,92.30_78.68,107.40_77.27,67.91_118.81,79.26_112.25,83.38_113.32,87.59_112.37,99.04_119.08,92.38_126.67,83.29_129.72,74.26_126.57,83.52_117.25,83.26_124.03,67.66_74.51,67.24_79.45,99.68_74.62,100.20_79.74
6.301203966,0.48,0.41,0,5.44,-1.47,4.04,12.28,6.35,136.89,162.63,45.74_106.37,56.56_129.51,80.91_141.88,103.74_128.75,114.30_106.76,50.55_64.86,60.96_59.68,72.75_64.23,88.10_64.48,99.46_60.00,109.68_65.10,80.27_73.61,80.66_93.13,72.40_98.57,80.51_99.81,88.59_98.37,56.15_73.73,71.49_75.32,88.79_75.45,104.41_74.25,65.02_116.58,76.83_111.58,80.43_112.82,83.96_111.70,95.86_116.64,88.47_120.92,80.67_123.11,72.63_120.80,80.43_116.13,80.71_118.20,63.70_69.88,63.51_76.56,96.76_70.15,96.91_76.93
6.534003019,0.33,0.42,0,6.4,-7.16,5.13,12.91,9.73,122.2,152.47,40.97_105.09,50.54_126.36,73.78_136.79,95.18_125.29,105.88_105.10,47.07_64.30,56.26_59.93,66.55_62.38,80.94_62.27,90.77_59.89,99.86_64.35,73.74_72.15,74.27_90.56,66.29_95.15,73.94_96.37,81.60_95.03,51.41_74.05,66.10_74.51,81.13_74.42,95.88_74.18,59.76_113.09,70.72_107.51,74.05_108.58,77.23_107.61,87.87_113.24,80.95_117.83,73.94_119.75,66.69_117.75,74.01_111.33,73.96_116.16,58.48_70.75,58.45_76.13,88.75_70.67,88.79_76.21
6.76534605,0.03,0.43,0,6.08,-2.32,5.33,12.24,8.28,122.97,152.07,41.77_103.10,51.24_124.07,73.97_135.00,95.02_122.98,104.15_102.83,46.61_63.69,55.58_58.29,66.37_60.82,80.82_61.17,91.12_59.11,99.73_64.32,73.41_70.69,74.10_87.78,66.64_93.51,73.78_94.13,80.76_93.47,51.47_72.23,65.54_72.94,81.09_72.90,95.04_72.52,58.94_110.77,70.28_105.30,73.73_106.43,77.00_105.46,88.36_110.86,81.60_115.86,74.21_117.97,66.52_115.69,73.71_109.30,74.27_113.88,58.24_68.64,58.18_74.50,88.47_68.68,88.28_74.68
7.001111984,0,0.43,0,0.35,-6.89,-0.42,-1.72,0.99,142.98,152.53,34.88_96.17,45.81_117.73,69.29_128.10,91.17_116.64,102.11_96.25,38.25_56.84,48.68_51.33,60.06_54.48,78.88_54.37,90.13_51.32,100.01_56.68,69.53_64.00,69.69_80.18,61.98_86.55,69.31_87.24,76.76_86.28,43.98_65.41,59.89_65.72,78.68_65.69,94.90_65.32,54.77_103.66,65.84_98.38,69.40_99.26,72.77_98.40,83.51_103.65,77.64_109.19,69.42_111.56,60.89_109.15,69.42_102.51,69.48_106.02,51.47_60.86,51.52_67.31,87.11_60.81,87.13_67.37
7.234189987,0,0.43,0,-1.21,-8.37,2.42,5.57,2.87,138.14,150.81,40.41_97.52,50.98_119.62,72.72_128.55,96.34_119.25,109.78_98.44,44.18_56.92,53.86_52.36,64.74_55.90,82.00_55.82,93.14_52.43,103.85_56.81,73.39_64.87,72.59_80.20,65.19_87.06,73.03_87.88,81.22_86.84,49.47_66.60,64.17_67.13,83.24_67.37,98.58_66.77,57.32_104.33,69.45_97.83,73.50_99.10,77.47_97.96,89.02_104.23,81.93_109.48,73.19_111.26,64.17_109.56,73.66_103.60,73.26_105.87,56.75_62.87,56.63_68.65,90.83_62.92,90.98_69.01
7.466164112,0,0.43,0,-2.27,-9.52,-1.11,-0.77,4.24,142.16,154.77,33.52_99.01,45.38_122.63,69.91_133.21,94.13_121.72,106.76_98.44,38.97_59.40,48.77_53.89,60.07_57.06,79.25_56.89,90.58_53.84,100.38_59.38,69.57_65.35,69.73_80.13,61.73_87.61,69.73_88.44,77.97_87.33,45.39_68.01,59.72_67.91,79.82_67.88,94.53_68.02,55.11_107.75,66.63_101.23,69.94_102.05,73.08_101.27,84.39_107.53,77.31_110.44,69.93_111.41,62.11_110.53,70.14_104.88,69.98_107.69,52.40_64.75,52.42_69.63,87.30_64.66,87.26_69.70
7.698936939,0,0.43,0,1.92,-5.03,0.42,1.21,4.36,140.19,151.32,37.75_97.36,47.56_119.78,70.89_130.46,93.54_118.42,104.28_96.73,40.40_58.30,49.94_53.08,61.63_56.24,79.38_56.20,91.19_53.10,100.96_58.39,70.49_64.92,70.67_82.63,62.41_88.67,70.66_89.90,79.10_88.33,45.97_67.71,60.76_67.56,80.39_67.63,95.72_67.68,56.36_106.80,67.75_101.68,70.94_102.59,73.97_101.74,84.77_106.54,77.81_108.95,70.77_109.92,63.21_108.99,71.02_105.58,70.82_106.06,52.88_63.97,53.01_69.55,88.48_63.94,88.38_69.61
7.934025049,0,0.43,0,3.89,-3.76,2.27,5.4,6.35,133.88,145.3,40.54_96.45,49.40_117.99,72.20_127.44,93.82_116.93,103.35_96.38,42.83_58.70,52.28_53.55,63.46_56.85,79.96_56.98,91.29_53.93,100.66_59.32,71.40_65.57,71.73_83.50,63.63_89.01,71.37_90.11,79.50_88.84,48.35_67.46,62.81_67.99,80.44_68.17,95.47_67.71,57.37_106.37,68.65_101.55,71.73_102.57,74.61_101.70,85.95_106.44,78.61_108.35,71.75_109.13,64.56_108.17,71.83_105.59,71.83_105.15,55.24_63.54,55.27_69.68,88.16_63.65,88.14_69.96
8.164180994,0,0.43,0,4.87,-5.22,3.49,9.48,7.06,127.12,147.04,39.47_98.16,49.83_119.42,73.02_129.59,94.45_118.58,104.38_98.06,45.01_59.44,54.02_54.60,64.99_57.81,79.96_57.89,90.88_54.70,99.92_59.63,72.28_66.79,72.87_83.47,64.73_89.31,72.54_90.18,80.37_89.11,49.97_68.72,64.31_69.22,80.72_69.18,95.34_68.90,58.18_106.92,69.32_102.34,72.71_103.38,75.93_102.44,86.60_106.91,79.34_109.22,72.60_110.32,65.61_109.11,72.70_106.46,72.59_106.41,56.73_64.91,56.80_71.09,88.48_64.86,88.29_71.20
8.400801182,0,0.43,0,3.62,-6.62,2.39,8.75,8.29,129.64,150.11,38.86_100.59,50.33_122.72,73.00_133.39,95.80_122.05,107.30_100.60,44.99_61.44,53.95_57.05,64.55_61.08,80.48_61.09,91.44_57.23,100.99_61.77,72.41_71.33,72.32_87.34,64.09_93.24,72.52_94.23,80.93_92.93,48.77_71.44,63.91_72.46,81.40_72.48,97.10_71.59,57.73_110.62,69.19_105.92,72.69_107.14,76.16_106.05,88.11_110.41,80.40_113.39,72.68_114.47,64.99_113.33,72.78_110.29,72.71_110.31,56.06_67.84,56.06_74.35,89.52_67.84,89.52_74.51
8.629805088,0,0.43,0,9.23,-2.38,-2.56,0.19,5.91,150.62,159.88,37.20_107.31,50.98_130.19,74.98_139.14,98.97_129.10,113.42_107.41,42.30_66.22,52.75_58.09,65.45_62.25,83.74_62.07,97.13_58.30,107.36_66.80,74.46_73.24,74.03_88.87,67.34_97.75,73.98_98.04,81.19_97.59,49.12_76.53,64.56_77.16,84.68_77.06,100.84_76.73,59.62_114.86,71.12_109.07,74.27_109.64,77.53_109.17,90.14_115.00,82.90_118.43,74.62_119.84,66.41_118.24,74.38_113.13,74.87_114.71,56.40_72.58,56.15_78.82,93.02_72.54,93.08_79.10
8.860384941,0,0.43,0,7.65,1.18,-1.02,6.03,13.95,132.5,144.96,35.05_103.66,46.88_125.10,71.26_134.76,95.31_125.20,107.62_104.27,43.06_65.93,52.92_61.06,63.79_64.10,79.09_63.85,90.44_60.83,100.30_66.50,71.44_72.36,71.68_88.32,65.37_95.53,71.17_96.44,77.47_95.57,48.05_74.06,62.79_74.73,80.49_74.69,95.79_74.35,56.42_110.99,67.66_105.93,70.85_106.59,73.98_106.09,86.20_111.65,78.76_115.28,71.12_115.76,63.41_114.69,70.84_109.63,71.25_111.74,54.85_70.64,54.78_76.36,88.53_70.63,88.46_76.58
9.102578163,0,0.43,0,7.59,-0.24,-1.29,3.15,8.25,137.3,154.73,33.81_105.41,46.91_127.92,71.23_137.19,94.61_127.68,107.68_105.63,41.53_65.51,51.18_58.37,63.32_61.53,79.16_61.21,91.55_58.29,100.84_66.08,70.93_72.48,71.15_88.74,64.20_96.62,70.79_97.33,77.77_96.32,47.09_75.51,62.04_76.12,80.33_76.01,96.00_75.65,56.60_113.42,67.92_107.00,70.95_107.63,73.99_107.15,85.38_113.66,78.24_116.31,70.72_116.94,63.29_115.90,70.94_111.09,70.97_112.43,54.04_71.39,53.96_77.72,88.48_71.27,88.49_78.00
9.334391117,0,0.43,0,8.49,0.13,-0.73,5.54,12.79,133.71,143.75,37.48_103.61,48.64_123.71,72.08_132.58,95.21_123.36,107.32_103.84,42.92_65.38,52.58_59.80,63.83_62.70,79.19_62.37,90.86_59.40,100.67_65.80,71.35_71.88,71.50_87.62,65.18_94.91,71.01_95.72,77.97_95.06,47.87_73.96,63.03_74.78,80.56_74.69,96.31_74.19,57.50_111.32,68.32_106.12,71.24_106.86,74.19_106.33,85.95_111.76,78.50_113.98,71.45_114.20,64.44_113.40,71.30_109.96,71.60_110.09,54.87_70.25,54.75_76.40,88.80_70.12,88.73_76.65
9.567438126,0,0.43,0,8.57,-0.04,-1.49,0.89,3.39,139.77,147.08,36.43_96.61,47.62_116.84,70.86_125.96,93.87_115.68,105.41_96.34,39.96_56.39,49.89_50.77,61.65_53.99,78.52_53.86,90.37_50.83,100.33_56.93,69.78_63.28,69.71_78.69,62.54_85.72,69.54_86.67,77.11_85.63,45.64_65.56,60.85_65.86,79.38_65.65,95.03_65.80,55.48_102.23,66.65_97.39,69.78_98.14,72.92_97.56,84.96_102.49,77.73_105.05,70.20_106.08,62.47_104.73,69.82_101.28,70.47_101.79,52.67_61.63,52.68_67.34,87.79_61.61,87.45_67.66
9.800580978,0,0.43,0,8.26,0.06,-2.2,1.48,5.69,140.76,147.3,37.57_98.94,48.98_119.61,72.08_128.44,95.04_118.43,106.63_98.58,40.83_59.49,50.73_53.36,62.96_56.05,79.50_55.94,91.87_53.69,101.63_60.25,71.01_65.29,71.05_81.01,64.37_88.30,70.81_88.92,77.78_88.09,47.08_67.94,61.99_68.32,80.63_68.21,96.07_68.13,57.22_105.08,68.13_99.63,71.20_100.32,74.21_99.85,85.74_105.50,78.79_108.25,71.54_109.26,63.98_107.94,71.28_103.56,71.78_104.77,54.03_64.11,53.96_69.72,88.85_64.20,88.59_70.08
10.0307579,0.03,0.43,0,4.14,0.88,-3.22,-0.83,7.96,142.84,141.41,34.25_97.02,45.96_117.59,69.93_125.80,93.91_117.04,106.10_97.09,39.09_58.37,49.20_53.56,61.44_55.77,77.82_55.82,90.29_53.87,100.80_58.81,69.64_62.27,69.70_79.81,63.22_87.15,69.72_87.06,76.38_86.94,45.33_67.31,60.08_65.86,79.60_65.92,94.65_67.38,55.51_102.92,66.73_97.66,69.73_98.23,72.63_97.72,83.79_102.85,76.52_105.78,69.83_106.85,62.84_105.86,69.89_101.36,69.94_102.58,52.33_65.42,52.64_67.32,87.40_65.45,87.02_67.55
10.26687098,59.43,0.01,47.41,5.12,5.78,-4.2,1.98,10.23,138.47,142.75,35.22_100.94,47.84_120.67,71.38_129.19,93.90_119.44,105.34_100.55,40.69_61.69,50.99_56.25,62.86_58.77,78.66_58.72,90.70_56.37,100.50_61.96,70.59_65.96,70.89_83.42,64.97_89.26,70.64_89.85,76.64_88.94,47.23_70.05,61.40_68.73,80.10_68.57,94.38_69.72,57.81_105.20,68.75_100.09,71.57_100.69,74.18_100.14,84.72_105.13,78.65_108.74,71.98_110.02,64.65_108.73,71.75_103.43,72.20_105.83,53.74_67.21,54.17_69.68,87.61_66.98,87.23_69.63
10.50009584,40.54,0.03,2.83,4.62,5.9,-3.02,0.48,7.56,138.57,144.85,33.89_99.03,46.12_119.29,69.99_128.27,92.91_118.01,105.22_98.72,39.22_59.16,49.49_54.26,61.38_57.22,77.41_57.08,89.20_54.61,99.08_59.66,69.48_64.56,69.82_83.31,63.19_89.74,69.64_89.94,76.31_89.18,45.13_68.75,59.95_67.74,78.86_67.69,93.68_68.56,55.90_104.54,67.44_99.53,70.30_100.11,72.99_99.62,83.42_104.31,76.37_107.49,69.92_108.80,63.04_107.59,70.41_103.10,70.06_104.63,52.07_66.33,52.43_68.77,86.55_66.07,86.30_68.91
10.73176003,0,0.42,0,5.07,6.58,-0.98,0.48,4.96,140.19,146.83,35.38_97.42,46.17_117.78,70.35_127.32,94.55_116.67,106.25_96.92,39.67_58.04,49.90_52.71,62.29_56.10,77.13_55.94,89.57_52.61,100.22_58.35,69.64_64.34,69.69_81.38,63.74_89.20,69.79_89.52,76.30_89.00,45.51_67.02,60.58_67.55,79.05_67.46,94.31_67.04,55.70_104.83,67.23_99.97,70.03_100.68,72.82_100.12,83.82_104.72,76.75_107.71,69.84_108.67,62.62_107.75,70.10_103.86,69.89_104.59,52.59_63.47,52.57_69.05,87.17_63.43,87.05_69.25
10.96688795,0.3,0.44,0,1.87,1.97,-5.07,4.31,9.25,133.48,137.68,36.00_94.21,49.03_115.18,70.68_123.99,93.56_114.02,106.70_93.58,41.62_57.55,51.53_53.68,62.77_55.64,78.36_55.48,89.74_54.01,99.27_58.33,70.66_61.71,70.23_78.80,62.67_84.36,70.15_85.60,78.21_84.13,47.09_66.17,61.16_64.66,79.96_64.70,94.43_66.18,56.24_99.31,66.44_94.64,70.32_95.50,74.05_94.93,84.93_99.52,77.69_103.98,70.54_105.64,63.27_103.52,70.45_98.68,70.74_101.82,54.05_64.18,54.21_66.53,87.15_64.18,86.84_66.64
11.201298,97.93,0.01,99.9,-6.54,3.96,-0.19,4.99,5.03,128.17,137.99,35.26_85.37,46.60_107.48,66.52_120.01,88.41_107.67,101.39_86.73,40.81_53.49,51.23_49.99,61.79_53.50,75.47_53.45,86.21_50.30,96.18_54.01,68.50_59.44,67.53_78.46,60.41_82.09,67.48_84.43,75.19_81.98,47.03_61.38,60.15_61.14,77.14_61.26,90.65_61.71,53.18_94.27,64.04_92.32,67.52_92.94,70.91_92.32,82.34_94.63,75.76_100.66,67.68_103.11,59.53_100.20,67.61_95.31,67.96_99.61,53.23_59.43,53.37_61.54,84.15_59.56,83.88_61.90
11.43340206,99.82,0.01,99.93,-6.02,3.37,-0.78,6.2,7.59,128.21,137.86,36.32_89.80,48.43_110.44,69.72_122.47,90.92_110.17,102.75_89.02,42.04_55.49,52.56_52.44,63.56_56.18,76.34_56.24,87.01_52.33,97.42_55.40,70.00_61.97,70.28_80.66,63.02_84.00,70.17_86.36,77.49_83.87,47.39_63.65,61.21_63.26,78.46_63.13,92.12_63.35,54.88_95.49,66.69_93.91,70.42_94.55,74.02_93.94,84.98_95.27,78.08_102.49,70.15_104.97,62.02_102.45,70.50_97.01,70.19_101.29,53.91_61.52,54.02_64.02,85.69_61.15,85.48_63.76
11.66531396,99.8,0.01,99.93,-4.17,3.8,-0.15,1.17,3.82,136.02,146.46,34.91_90.90,46.34_113.23,66.43_125.87,88.78_113.86,102.36_92.31,39.19_55.83,49.40_51.91,60.37_55.28,76.07_55.11,87.48_52.12,97.94_56.30,68.28_62.45,67.41_82.37,60.69_86.54,67.61_88.23,74.88_86.39,44.97_64.29,58.84_64.65,78.24_64.97,92.20_64.31,51.38_97.58,63.80_96.10,67.64_96.75,71.38_96.27,84.54_97.81,77.39_105.96,67.76_109.18,58.11_105.59,67.72_99.52,67.93_104.99,51.22_62.03,51.41_64.74,85.41_62.08,85.56_64.99
11.90052795,99.53,0,99.92,-0.32,4.6,-0.16,2.36,0.07,134.64,150.96,35.38_91.88,45.66_114.76,67.24_125.87,90.22_114.76,102.31_93.21,40.00_56.26,50.36_49.93,62.58_53.76,75.63_53.68,87.76_50.32,98.16_56.63,69.11_61.38,68.34_80.27,62.45_86.20,68.49_87.48,74.72_86.17,46.23_63.67,60.22_64.39,77.85_64.47,91.88_63.67,53.29_98.26,64.85_95.08,68.22_95.73,71.62_95.27,84.09_98.60,77.57_106.19,68.45_109.65,59.46_105.94,68.28_98.63,68.73_105.06,52.72_60.70,52.68_64.71,85.28_60.60,85.24_64.91
12.13383698,99.88,0,99.93,1,2.6,-1.19,4.28,5.92,131.96,144.67,36.00_95.66,46.85_116.00,69.00_126.48,92.25_115.44,104.41_95.60,41.17_58.23,50.85_53.09,62.72_56.67,76.61_56.62,87.98_53.15,98.17_58.22,69.67_64.55,69.50_81.34,63.35_88.41,69.62_88.85,76.28_88.20,46.89_66.68,60.86_67.16,78.61_67.07,92.87_66.52,54.16_100.09,66.45_97.48,69.88_98.07,73.28_97.60,85.28_100.22,78.03_106.29,69.66_108.87,60.97_106.12,69.84_100.87,69.71_104.96,53.49_63.63,53.48_68.24,86.27_63.45,86.11_68.20
12.36562109,100,0,99.93,-4.18,-0.7,-4.92,-0.45,6.99,145.5,148.72,35.06_96.54,48.15_119.38,71.12_130.92,95.12_119.63,108.19_95.98,40.22_59.43,50.77_55.78,62.67_58.49,81.02_58.13,92.86_55.68,103.07_59.29,71.71_66.10,71.47_85.80,62.60_90.31,71.65_91.48,80.76_90.09,46.89_69.72,61.49_68.69,82.05_68.72,97.07_69.41,54.65_102.81,67.94_99.81,71.84_100.61,75.69_99.91,88.98_102.63,81.26_110.29,71.82_113.48,62.32_110.29,71.93_103.24,71.84_108.95,54.24_69.40,54.34_70.02,89.73_69.14,89.50_69.97
12.59871697,97.52,0,99.89,-8.6,3.32,-3.14,4.73,6.17,141.74,140.9,39.54_88.90,50.49_111.93,74.07_123.59,98.11_111.80,110.60_89.59,44.35_56.71,55.06_52.04,67.66_55.54,81.87_55.77,94.45_52.43,105.57_57.03,74.24_63.46,73.98_84.00,66.57_88.16,74.07_90.44,82.12_88.09,50.62_64.53,65.37_65.40,84.05_65.58,99.23_64.65,58.35_98.85,70.79_98.26,74.41_99.05,77.91_98.45,90.69_99.19,83.47_104.03,74.35_106.16,65.13_103.78,74.49_101.65,74.47_102.18,57.56_61.76,57.61_66.25,91.88_61.81,91.97_66.65
12.83435798,98.97,0,99.92,-9.61,1.6,-2.19,4.17,4.89,138.7,140.2,38.75_87.87,48.83_109.67,72.15_121.72,96.34_110.15,107.33_88.74,42.94_54.93,53.71_50.38,65.84_54.33,79.46_54.27,91.58_50.64,102.86_55.28,72.38_62.13,71.90_80.27,64.43_85.52,72.10_87.29,80.37_85.55,49.07_62.81,63.71_63.82,82.00_63.83,96.65_62.94,56.25_96.68,68.63_95.71,72.50_96.60,76.22_95.89,89.01_97.21,81.76_101.81,72.47_103.89,63.09_101.54,72.43_99.33,72.52_100.21,56.07_59.99,56.04_64.62,89.68_59.93,89.66_64.84
13.06691408,99.97,0,99.93,-2.8,0.64,-3.36,2.38,7.09,143.47,140.55,39.46_91.39,51.00_113.61,72.92_124.22,95.66_113.11,108.27_92.09,42.48_59.11,53.40_53.11,66.17_56.87,80.64_56.87,93.30_53.44,104.46_59.20,73.22_64.41,72.81_82.99,65.42_87.95,72.98_89.71,80.80_87.69,49.16_66.26,63.91_66.86,82.79_66.96,98.05_66.16,57.14_99.31,69.75_96.43,73.17_97.12,76.54_96.53,89.46_99.13,82.56_104.81,73.34_107.75,64.07_104.88,73.29_99.87,73.54_103.61,56.24_63.27,56.19_67.67,90.63_63.22,90.63_67.87
13.29907084,100,0,99.93,-1.53,-1.59,-3.93,5.12,10.83,142.33,141.24,41.29_96.24,51.91_117.54,75.22_128.52,99.73_117.13,110.61_95.39,44.90_62.78,55.33_56.91,68.04_60.79,83.05_60.66,95.51_56.52,106.38_62.46,75.55_68.51,75.28_85.78,66.87_90.50,75.69_92.80,84.40_90.21,51.13_69.59,65.90_70.08,85.38_70.15,100.46_69.37,58.33_101.75,71.46_99.06,75.80_100.00,80.06_99.19,92.76_101.53,85.97_107.45,75.56_110.09,64.92_107.40,75.87_102.98,75.50_106.33,58.28_66.66,58.30_70.88,93.04_66.50,93.25_70.85
13.53335285,99.99,0,99.93,-0.16,-6.29,-6.85,5.85,14.63,150.63,155.62,40.11_107.26,55.67_134.48,79.81_144.31,104.27_133.89,120.80_107.85,47.96_70.48,58.29_65.41,69.98_69.38,91.62_69.11,103.36_65.55,113.02_70.78,80.86_77.73,80.41_94.00,70.97_100.06,80.02_101.82,89.53_100.04,54.44_80.73,68.84_80.97,92.19_81.11,106.78_80.90,62.96_115.92,76.50_110.47,80.81_111.31,84.98_110.46,97.80_116.16,90.69_122.82,80.53_125.48,70.01_122.77,80.81_113.71,80.63_121.58,61.68_79.04,61.47_81.40,99.49_79.10,99.70_81.68
13.767838,19.16,0.11,0,-2.31,-6.05,-14.67,17.03,23.58,146.59,155.06,54.54_113.47,65.58_140.25,89.11_152.79,114.24_139.92,127.67_113.84,58.00_82.55,67.68_75.04,80.27_79.07,98.56_78.83,111.24_74.96,121.32_82.67,89.64_87.54,89.07_103.41,81.41_109.64,89.05_111.14,97.60_109.60,65.24_90.93,79.17_90.85,100.44_90.94,114.07_91.04,75.04_125.01,85.24_117.66,89.47_118.15,93.71_117.60,104.24_124.66,99.49_133.09,89.40_136.74,79.45_133.31,89.41_120.36,89.55_132.85,71.99_88.76,71.95_91.47,107.57_89.00,107.58_91.59
14.0002861,98.76,0,97.76,2.5,1.26,-3.6,5.93,7.95,138.08,153.77,40.34_100.21,51.19_123.99,74.42_136.09,98.99_123.69,110.67_100.28,44.52_64.64,54.33_58.65,65.14_62.31,82.13_61.83,94.03_58.24,104.17_64.93,73.76_72.13,73.00_88.90,64.09_94.17,73.11_96.13,82.47_94.22,49.53_73.96,64.24_74.83,83.90_74.83,98.83_73.75,55.53_108.10,68.98_104.45,73.59_105.59,78.34_104.52,92.24_108.46,84.71_114.91,73.50_117.89,62.53_114.67,73.64_108.07,73.67_114.24,56.61_71.79,56.43_75.76,91.46_71.46,91.73_75.69
14.23209596,98.64,0,99.9,2.21,-0.35,-3.69,6.82,7.53,134.85,153.32,39.16_100.39,50.87_124.24,74.11_135.29,98.08_123.41,109.96_99.49,44.51_62.96,54.36_57.76,64.81_61.31,81.85_61.08,92.91_57.50,102.76_63.14,73.40_70.36,73.30_87.99,64.11_93.10,73.21_94.63,82.51_93.10,49.82_72.66,63.87_73.02,83.21_73.05,97.31_72.44,55.20_107.45,68.68_103.30,73.42_104.35,78.21_103.24,91.93_107.31,84.41_113.65,73.57_116.56,62.73_113.76,73.51_106.83,73.57_112.81,56.69_70.53,56.53_74.02,90.43_70.31,90.53_73.94
14.46669602,0.06,0.43,0,1.66,-0.48,-3.9,2.8,7.2,129.39,146.26,34.03_97.35,43.75_117.71,66.92_129.08,90.78_116.81,101.10_97.07,38.97_58.63,48.01_54.99,58.13_57.71,75.41_57.82,85.65_55.42,94.86_59.29,66.58_66.56,66.55_84.92,58.68_90.44,66.58_90.90,74.90_90.31,43.43_69.45,57.86_68.71,75.79_68.92,90.45_69.89,52.02_106.18,62.98_101.70,66.69_102.89,70.35_101.79,81.05_106.03,73.90_109.72,66.80_111.63,59.27_109.73,66.85_106.05,66.89_107.06,50.30_67.83,50.50_70.54,83.42_68.11,83.06_70.98
14.6991601,0,0.67,0,17.43,5.58,2.32,11.65,13.04,117.58,137.13,32.98_93.24,45.13_114.86,69.63_127.32,93.77_114.81,106.33_93.38,44.51_60.86,53.34_56.63,63.34_58.58,76.49_58.37,86.37_56.49,95.30_60.61,69.64_64.89,69.53_79.66,64.41_86.07,69.45_86.31,74.98_86.11,49.43_66.07,61.29_67.28,78.13_67.25,90.03_66.25,56.18_99.51,66.05_93.48,69.54_94.16,73.06_93.50,83.03_99.13,77.15_104.20,69.76_106.30,62.18_104.19,69.55_98.13,69.81_101.48,55.42_63.60,55.08_67.72,84.06_63.77,84.16_67.81
14.93379402,0,0.43,0,30.92,8.25,-2.89,4.6,0.15,129.59,136.38,32.78_89.70,43.36_105.78,68.50_113.80,94.10_105.89,106.38_90.19,40.83_51.35,49.83_43.37,62.16_44.52,75.08_44.48,87.24_43.66,96.81_51.62,68.47_53.25,68.34_65.38,62.86_73.11,68.40_72.09,74.28_73.00,46.78_58.59,60.20_57.55,77.19_57.53,90.87_58.75,57.44_90.18,65.33_79.33,68.53_79.75,71.64_79.28,80.28_89.84,74.40_92.12,68.54_92.94,62.85_92.11,68.52_84.10,68.65_87.80,53.21_54.93,53.52_59.49,84.24_54.95,83.74_59.54
15.16765213,0,0.41,0,23.65,10,-2.23,4.22,0.49,129.81,138.94,33.46_92.36,45.64_108.98,70.23_116.28,94.13_107.59,105.19_90.92,40.51_53.31,49.03_44.99,61.22_46.55,75.45_46.56,87.48_45.25,96.58_53.28,68.34_55.97,68.13_68.60,62.91_76.55,68.45_75.96,74.21_76.44,46.35_61.14,59.55_60.83,76.96_60.85,90.42_61.36,58.02_93.50,65.79_82.49,69.12_82.95,72.32_82.45,80.95_92.61,75.76_95.59,70.03_96.59,63.93_95.88,69.27_87.81,70.14_91.31,52.61_57.31,52.86_62.54,83.85_57.46,83.57_62.66
15.39889503,0,0.43,0,25.07,6.52,-0.17,4.54,-1.14,129.56,142.28,33.57_90.17,44.78_107.93,68.25_117.42,93.00_107.96,106.64_90.53,40.75_51.87,49.72_44.39,61.55_46.27,75.85_45.97,87.49_44.28,96.71_51.74,68.68_54.79,68.31_68.20,62.84_75.96,68.24_75.41,74.28_75.90,46.87_60.20,60.01_59.43,77.56_59.13,90.67_60.03,56.81_92.34,65.20_83.40,68.35_83.88,71.44_83.38,80.30_92.03,74.23_95.31,68.39_96.77,62.51_95.49,68.37_87.84,68.47_91.88,53.08_56.52,53.32_61.23,84.32_56.30,83.92_61.05
15.63230085,0,0.52,0,9.51,5.71,1.87,10.04,12.61,113.63,127.86,32.98_94.42,40.89_110.45,66.72_119.16,91.58_109.99,99.68_94.60,41.80_57.44,49.32_53.08,59.23_54.10,74.34_54.03,83.72_53.24,90.88_57.92,66.40_60.21,66.63_75.31,60.62_83.10,66.45_82.61,72.48_83.08,45.21_62.76,58.19_62.99,74.66_62.97,87.39_62.97,53.51_99.45,63.29_94.94,66.35_95.84,69.38_95.03,79.20_99.33,71.77_99.05,66.54_98.27,61.06_98.83,66.34_99.38,66.59_95.38,51.53_59.84,51.51_64.49,81.45_59.95,81.08_64.64
15.86611509,0,0.43,0,0.92,1.85,3.59,14.31,14.72,116.74,127.9,36.34_90.96,45.93_110.63,70.63_121.30,94.21_110.83,104.95_92.24,46.94_59.75,56.48_55.83,67.36_59.38,78.35_59.83,88.20_56.91,97.36_60.72,72.54_67.15,72.55_85.93,65.64_90.56,72.14_91.97,78.49_90.88,52.05_66.50,65.48_68.32,79.10_68.17,92.12_67.02,57.38_99.32,67.63_98.88,71.31_99.78,74.87_98.99,85.63_99.30,79.47_102.65,71.73_103.71,63.78_102.83,71.14_103.12,71.72_99.92,58.58_63.74,57.99_69.40,86.27_64.02,86.13_69.70
16.09980392,0,0.42,0,-1.53,0.82,2.74,9.71,8.39,123.3,137.89,35.87_91.47,45.72_112.62,67.51_123.30,90.68_114.02,103.32_94.18,44.18_58.03,53.87_53.45,65.39_56.94,77.37_57.39,88.12_54.82,97.44_59.36,71.28_66.45,70.75_86.70,64.05_90.26,70.08_92.51,76.20_90.75,49.93_66.52,63.47_67.97,78.92_68.03,91.82_67.22,56.48_101.61,65.76_99.98,69.10_101.05,72.28_100.33,83.09_102.76,76.82_106.15,69.14_106.83,61.80_105.24,68.88_104.20,69.22_102.76,56.47_63.79,55.99_69.02,85.81_64.11,85.65_69.62
16.33402705,0,0.43,0,-1.44,3.18,1.08,7.41,6.9,125.79,145.06,34.17_93.46,46.04_117.42,69.91_127.78,93.07_116.98,105.43_93.47,42.57_58.01,52.67_55.13,63.67_58.92,75.29_58.83,86.44_55.06,96.90_58.62,69.28_67.05,69.72_87.14,63.12_92.31,69.44_93.62,75.76_92.53,48.42_67.47,61.55_68.62,77.63_68.61,91.10_67.59,56.57_107.03,66.11_102.38,69.34_103.20,72.54_102.53,82.42_106.97,76.25_111.72,69.39_113.06,62.54_111.41,69.41_106.07,69.37_109.20,54.70_65.99,54.57_69.86,84.35_66.03,84.58_70.01
16.56579113,0,0.43,0,0.75,6.17,2.36,16.08,14.16,113.6,139.24,37.23_94.41,48.69_120.68,71.69_130.19,95.06_120.31,106.82_95.72,47.83_62.31,57.29_60.41,67.25_64.07,77.85_63.92,87.37_60.27,96.90_62.59,72.21_70.37,71.78_90.54,66.68_95.88,71.57_96.97,76.77_95.82,53.29_69.48,65.01_71.12,80.08_71.11,91.92_69.62,60.36_110.57,68.90_106.21,71.68_107.22,74.41_106.27,83.91_110.44,78.48_114.42,72.11_115.69,65.70_114.49,71.57_110.35,72.07_111.58,59.21_68.19,58.70_72.04,86.14_68.34,86.46_72.12
16.79748392,0,0.43,0,0.38,7.51,0.86,12.84,13.22,114.85,136.14,35.45_93.01,44.91_116.75,68.51_126.67,92.32_117.21,103.30_94.36,44.94_62.02,54.04_57.75,64.51_59.92,75.18_59.89,85.62_57.95,94.55_62.29,69.32_66.85,69.14_86.55,63.89_93.17,68.84_94.05,74.13_93.32,50.46_67.20,62.38_68.28,76.61_68.15,88.66_67.16,57.22_107.73,65.94_103.12,68.81_104.07,71.65_103.12,80.69_107.44,75.00_109.94,68.65_110.56,62.53_110.08,68.66_107.09,68.82_107.07,56.30_64.76,55.96_69.37,83.07_64.65,83.05_69.32
17.03376484,0,0.43,0,1.68,8.26,1.05,11.82,9.4,117.66,141.57,33.73_94.26,46.50_118.95,70.54_127.38,93.78_118.49,105.88_94.66,44.72_59.14,53.78_55.85,64.06_58.85,76.76_58.86,86.64_56.08,95.54_59.45,70.34_67.39,70.52_87.07,64.57_93.50,70.32_93.42,76.04_93.28,50.09_67.47,62.57_68.75,77.89_68.79,90.40_67.48,58.91_108.60,67.22_103.79,70.29_104.94,73.29_103.94,81.75_108.32,75.96_110.54,70.49_111.13,64.97_110.58,70.22_108.18,70.62_107.68,56.41_65.58,56.02_70.24,84.28_65.71,84.39_70.34
17.26708102,0,0.91,0,3.49,4.08,1.12,9.17,14.53,119.82,136.63,33.79_97.20,43.35_117.57,68.05_128.38,92.64_116.93,102.77_97.51,42.66_61.29,52.10_58.33,61.96_60.74,75.79_60.80,85.35_58.74,94.42_62.07,68.61_67.99,68.84_85.70,62.36_91.37,68.53_92.34,74.86_91.44,47.03_69.28,60.50_69.48,76.61_69.56,89.91_69.68,55.55_105.58,65.17_102.28,68.54_103.16,71.83_102.40,81.62_105.61,75.23_108.70,68.68_109.21,61.83_108.66,68.53_105.63,68.77_106.28,53.39_67.12,53.36_70.80,83.80_67.40,83.46_71.17
17.49832392,0,1,0,6.72,5.36,5.36,14.67,15.47,115.64,139.11,38.78_95.17,50.11_118.95,71.47_131.40,92.69_118.61,106.52_96.60,46.99_64.69,56.82_61.40,66.85_64.14,78.28_64.14,88.09_62.39,96.94_65.93,72.00_72.29,70.95_91.05,66.40_95.86,71.05_97.49,76.24_95.61,52.63_71.23,64.50_72.55,79.73_72.57,91.63_71.23,60.79_111.23,69.60_106.57,71.90_107.36,74.14_106.60,82.95_111.25,77.72_114.98,71.91_116.41,65.97_114.96,71.90_109.95,72.22_112.20,58.61_69.22,58.22_73.21,85.97_69.23,86.06_73.33
17.73322701,0,0.43,0,2.79,3.86,9.89,16.34,8.88,124.35,156.6,41.72_102.93,54.48_126.27,77.31_139.39,101.09_126.46,114.59_104.51,51.10_67.16,60.76_62.06,71.77_65.83,83.76_66.08,95.14_62.79,104.81_68.24,77.71_76.98,77.40_95.71,71.32_101.38,77.56_103.09,83.52_101.11,56.64_76.80,70.10_78.38,85.38_78.58,98.99_77.38,65.14_117.45,74.16_110.86,77.14_111.68,79.96_111.03,90.84_117.50,85.57_124.54,77.72_127.56,70.25_124.41,77.20_114.63,77.77_123.07,62.75_74.19,62.64_79.19,92.43_74.55,92.69_79.71
17.96404314,92.33,0,99.72,3.02,-2.3,-3.02,-0.56,7.47,149.41,155.97,36.62_104.26,49.48_126.42,73.55_137.44,97.05_126.00,109.61_104.26,41.20_64.93,51.57_58.60,64.00_61.83,83.19_61.73,95.78_58.67,105.74_65.11,73.43_70.75,73.38_87.85,65.37_93.98,73.25_95.56,81.15_93.54,47.72_73.51,62.99_73.64,84.06_73.49,99.97_73.40,58.05_109.92,69.66_103.64,73.62_104.31,77.43_103.61,88.85_109.69,82.49_116.10,73.21_119.38,64.06_116.12,73.65_108.02,73.45_113.80,54.85_70.28,54.94_74.64,92.48_70.06,92.29_74.69
18.19801998,1,0.4,0,-0.04,-1.06,-5.23,1.3,9.57,152.2,157.74,39.88_106.77,53.45_131.02,76.85_141.02,99.94_129.12,113.38_106.54,43.85_68.20,54.77_61.32,68.02_64.43,85.75_64.24,99.14_61.61,109.59_68.63,76.70_72.93,76.61_93.50,69.50_99.65,76.47_100.70,83.81_99.28,51.45_76.45,66.05_76.82,87.59_76.89,102.70_76.79,62.42_114.55,73.45_108.55,76.80_109.26,80.12_108.65,90.87_114.33,84.70_119.84,76.87_122.91,68.49_119.92,76.95_112.83,77.23_116.91,58.31_73.09,58.26_77.48,95.50_73.19,95.22_77.90
18.4196949,0.12,0.42,0,2.01,3.78,-4.75,-0.16,6.58,150.96,158.63,36.84_104.83,49.54_128.82,74.86_138.78,98.79_127.01,111.68_104.80,42.04_65.59,53.50_58.59,67.25_62.08,84.03_61.62,97.18_59.02,107.25_65.54,75.15_70.80,74.98_89.83,68.47_97.36,74.59_98.01,81.15_96.69,49.97_74.59,64.90_74.83,85.11_74.72,100.83_74.27,61.10_113.57,71.79_106.32,75.45_107.07,78.66_106.47,89.26_113.62,83.29_117.93,75.39_120.44,66.82_118.07,75.51_111.01,75.83_114.57,56.95_71.01,56.82_75.62,93.47_70.74,93.50_75.79
18.672158,0.11,0.42,0,-0.06,4.51,-2.93,1.03,7.97,142.25,151.66,37.99_104.11,48.93_124.70,72.29_134.35,95.53_122.94,106.35_103.48,40.80_63.88,51.31_58.04,63.99_60.86,79.72_60.68,91.98_58.08,102.24_63.81,71.81_69.85,71.80_88.49,66.32_95.82,71.88_95.76,77.71_95.35,47.51_73.50,62.52_73.34,81.10_73.22,96.50_73.30,59.12_111.58,69.05_105.64,72.04_106.29,74.88_105.71,84.54_111.15,79.06_115.65,72.29_118.00,65.07_115.77,72.14_110.15,72.47_112.31,54.27_69.76,54.48_74.94,89.56_69.46,89.20_75.00
18.89980698,26.85,0.06,0.24,2.17,1.69,-4.21,-1.99,13.18,152.57,149.23,36.22_107.97,48.99_128.87,73.79_137.54,99.19_127.87,113.11_107.93,40.66_67.40,51.25_61.58,63.91_64.86,82.89_64.59,95.76_61.47,106.56_67.55,73.44_73.27,73.25_89.93,66.49_97.82,73.36_97.88,80.54_97.54,47.32_76.43,62.72_76.26,84.36_76.19,100.01_76.46,59.42_113.36,70.69_108.09,73.73_108.69,76.72_108.07,87.87_112.64,81.04_116.21,73.83_118.09,66.42_116.62,73.75_111.92,73.91_113.65,54.51_72.95,54.56_77.59,92.61_72.82,92.33_77.73
19.13359594,7.15,6.47,0.01,1.96,5.58,5.22,13.28,11.46,123.79,150.57,38.03_100.55,49.22_123.54,74.29_136.93,98.04_123.53,110.73_101.29,47.89_65.28,58.47_60.50,69.16_63.71,81.74_64.20,91.95_62.15,101.36_66.85,75.24_72.00,75.48_91.18,68.82_96.65,75.05_97.57,81.06_96.39,53.05_72.64,66.57_73.63,83.12_73.77,96.11_73.09,60.76_110.19,71.42_105.67,74.84_106.36,78.10_105.77,88.36_110.58,82.20_116.35,74.69_118.43,66.88_116.09,74.74_109.25,74.89_114.05,59.92_70.61,59.55_74.25,89.97_71.09,89.78_74.71
19.36479402,1.87,0.38,0,1.15,3.85,6.06,15.77,12.79,124.95,153.34,43.75_106.52,55.51_128.94,78.18_140.57,101.10_127.68,111.47_105.72,50.69_68.68,60.01_63.43,71.15_67.05,84.41_67.51,94.86_63.89,104.67_69.00,77.85_75.88,77.97_93.91,71.71_100.48,78.01_101.10,84.49_100.21,55.86_76.63,69.39_77.70,85.85_77.83,99.41_76.89,62.63_114.94,74.81_111.43,78.01_112.14,81.18_111.47,92.98_114.82,86.45_121.75,78.01_124.10,69.26_121.60,78.01_114.67,78.00_119.82,62.36_74.26,62.24_78.96,92.76_74.49,92.92_79.30
19.59893799,0.11,0.42,0,0.36,1.95,1,3.49,4.13,137.37,158.65,38.76_101.15,49.05_124.44,70.96_136.34,92.59_123.91,104.55_102.24,41.89_62.09,51.92_57.08,63.63_60.30,79.53_60.28,91.08_57.59,101.23_62.97,71.34_69.61,71.04_89.42,65.35_95.62,70.98_96.46,77.14_95.48,48.24_71.89,62.49_72.33,80.35_72.49,94.85_72.18,57.60_110.96,67.69_106.72,70.92_107.49,74.04_106.90,84.34_111.13,78.46_118.01,71.05_121.17,63.34_117.85,70.93_110.77,71.18_116.36,54.95_68.55,54.89_73.42,87.98_68.69,87.92_73.95
19.83342791,0.01,0.42,0,4.24,3.7,-4.03,0.81,7.2,149.69,157.65,34.63_107.86,49.65_130.93,75.89_138.58,101.56_129.31,116.85_107.85,42.65_64.09,53.74_57.57,66.84_60.86,83.48_60.77,96.75_58.17,107.31_65.40,75.00_68.97,74.97_87.16,69.38_95.52,74.82_95.55,80.88_95.40,49.97_73.21,65.05_73.08,85.16_73.31,100.82_73.76,60.99_113.37,72.17_106.96,75.24_107.56,78.20_107.09,89.02_113.20,82.15_114.81,75.28_115.84,67.96_114.74,75.36_111.43,75.60_111.21,57.02_69.37,57.03_74.15,93.36_69.59,93.04_74.82
20.06549501,15.66,0.14,0.03,2.22,3.61,-3.27,0.99,6.56,146.42,150.01,38.26_100.60,50.43_122.04,74.00_131.57,98.11_120.54,110.87_99.99,41.92_61.24,52.57_55.63,65.23_59.13,81.62_58.95,94.43_55.79,105.16_61.65,73.43_67.72,73.35_85.49,66.71_92.94,73.48_93.17,80.72_92.59,48.23_70.61,63.35_70.96,83.61_70.89,99.12_70.70,58.94_107.65,70.61_102.74,73.79_103.38,76.99_102.75,88.18_107.31,81.12_111.71,73.66_113.84,66.05_111.79,73.89_106.79,73.87_109.08,55.39_67.39,55.45_72.39,91.90_67.28,91.68_72.50
20.30099916,93.56,0,99.78,-3.61,0.16,-4,1.54,9.14,148.12,153.25,39.24_101.93,53.00_124.91,74.84_136.84,97.93_124.98,112.67_102.21,42.95_64.25,54.06_59.95,66.36_64.13,83.02_63.97,95.71_60.00,106.93_64.66,74.64_73.49,74.60_91.82,67.30_97.78,74.63_98.60,82.43_97.63,49.44_74.33,64.82_75.38,84.93_75.45,100.31_74.63,60.63_111.16,72.04_107.64,75.09_108.40,78.13_107.71,89.35_111.11,83.04_117.88,74.79_121.09,66.60_117.75,75.07_110.73,74.82_117.03,56.84_71.36,56.73_76.48,93.06_71.47,93.02_76.72
20.53339911,99.97,0,99.93,-6.73,1.56,0.83,3.44,4.13,140.09,151.4,37.39_94.76,48.97_117.65,72.12_130.30,95.34_117.77,107.05_95.72,42.60_59.36,53.44_54.06,65.51_58.86,80.01_58.91,92.16_54.37,103.11_59.77,72.74_68.03,72.23_88.10,65.12_92.79,72.26_94.49,79.50_92.87,49.13_68.79,63.84_70.26,81.61_70.22,96.05_68.85,56.33_103.86,68.48_102.26,72.12_102.84,75.54_102.27,88.50_104.22,81.51_110.80,72.37_113.77,63.18_110.57,71.98_105.68,72.49_109.32,56.22_65.89,56.00_70.88,89.31_65.83,89.35_71.07
20.76701117,99.99,0,99.93,-8.23,0.94,-0.86,2.64,5.11,142.26,147.76,37.66_93.56,50.59_117.28,73.68_128.24,96.46_115.90,108.27_92.27,42.41_58.10,53.79_53.61,66.52_57.64,80.67_57.66,92.71_53.42,103.86_57.59,73.46_67.04,73.54_86.66,66.05_91.34,73.70_93.08,81.40_91.10,49.38_67.59,64.30_68.62,82.65_68.42,97.46_67.11,57.19_101.67,70.38_100.09,73.89_100.53,77.27_100.12,90.05_101.30,83.22_107.92,73.99_110.70,64.36_107.82,73.96_102.37,73.98_107.24,56.60_64.63,56.57_69.59,90.61_64.33,90.53_69.34
20.99961185,100,0,99.93,-3.88,1.49,-4.78,0.99,10.03,156.05,159.17,41.26_106.00,55.04_130.00,77.69_142.68,101.32_129.04,114.33_105.33,44.61_68.47,56.40_62.61,69.58_66.31,87.25_66.02,100.25_62.68,112.01_68.59,78.68_73.87,78.72_93.08,70.25_98.67,78.69_99.93,87.17_98.42,52.43_76.62,68.31_77.40,88.79_77.42,104.70_76.54,60.24_110.70,74.63_105.98,78.93_106.92,83.10_106.12,96.66_110.81,90.00_120.89,78.63_125.61,67.05_120.85,78.90_109.69,78.65_120.74,60.17_73.45,60.06_78.09,97.01_73.30,97.10_78.16
21.23161793,99.92,0,99.93,-8.28,3.22,-5.74,0.78,9.54,157.44,151.82,41.79_100.93,54.51_124.30,78.40_136.06,103.97_124.04,117.42_101.50,44.79_65.52,56.29_59.74,69.52_64.10,87.37_63.93,100.90_60.07,112.80_66.02,78.40_73.01,77.76_93.82,69.64_99.11,78.01_101.18,86.75_98.95,52.00_73.96,67.91_74.90,89.22_74.91,105.50_74.22,61.78_110.88,74.58_109.61,78.22_110.22,81.81_109.71,95.14_110.90,87.84_116.95,78.15_119.94,68.44_116.65,78.33_113.24,78.45_115.12,59.34_70.72,59.43_75.76,97.81_70.81,97.69_76.05
21.46634912,99.53,0,99.92,-7.41,5.63,-0.63,4.29,4.27,139.86,157.93,38.35_98.27,50.05_122.17,73.66_135.87,97.26_122.22,110.07_98.59,43.38_60.92,54.43_56.57,66.54_61.66,81.35_61.61,92.77_57.21,103.80_61.80,73.50_71.31,73.34_91.15,65.93_96.08,73.53_97.78,81.48_96.04,49.73_71.38,65.11_72.97,82.73_72.80,97.64_71.48,57.24_108.25,70.10_107.01,73.54_107.75,77.04_107.19,90.35_108.56,83.10_116.03,73.81_119.40,64.36_115.93,73.37_109.85,73.71_115.10,57.09_68.50,56.86_74.02,90.67_68.53,90.69_74.06
21.69918704,0.47,1.34,0,-8.18,12.94,3.45,13.77,11.46,123.03,149.75,34.28_93.26,48.73_121.94,74.71_136.26,100.30_123.11,114.61_95.23,49.28_62.30,59.76_59.44,69.55_64.17,81.38_64.57,91.50_60.74,101.55_64.26,75.32_70.95,74.85_92.20,68.48_95.90,75.13_98.16,81.56_96.36,55.14_69.30,67.30_71.10,83.99_71.11,96.16_70.06,59.87_108.33,71.59_108.08,74.86_108.71,78.29_108.17,90.22_108.71,83.53_113.38,75.14_115.10,66.97_112.87,74.67_110.66,75.26_112.06,61.22_67.92,60.71_71.57,90.03_68.46,90.20_71.96
21.9338479,93.07,0,99.76,-3.91,14.53,5.87,16.67,12.02,124.06,160.68,37.35_103.08,53.21_131.52,79.12_145.92,106.01_131.88,120.06_103.72,53.49_68.67,63.43_64.19,73.40_70.25,84.73_70.71,94.71_66.02,104.74_71.03,78.85_77.48,78.57_98.54,73.49_103.10,78.77_105.09,84.39_103.40,58.85_76.46,70.80_78.98,87.01_79.27,99.41_77.99,62.94_114.24,75.61_113.11,78.97_113.51,82.54_113.23,95.78_114.14,88.56_122.38,79.45_125.61,70.44_122.00,78.81_114.97,79.66_121.87,64.95_75.18,64.43_78.37,93.27_76.31,93.51_79.24
22.167202,37.69,0.92,1.7,-5.98,7.85,2.7,11.6,6.36,127.41,153.76,36.53_94.33,49.78_119.89,74.64_134.50,98.07_120.46,111.64_95.38,47.22_60.47,58.17_56.15,69.68_61.18,80.84_62.02,92.14_59.54,102.25_63.93,74.59_67.94,74.83_88.74,67.76_92.94,74.70_94.85,81.81_93.10,52.88_68.39,66.07_69.94,83.36_70.26,96.18_70.14,58.66_104.37,71.33_103.37,74.74_103.87,78.42_103.49,90.05_104.99,83.59_111.81,74.97_114.59,65.94_111.76,74.51_105.67,75.09_110.65,59.63_67.25,59.25_69.80,90.11_68.42,89.88_70.94
22.39699602,91.29,0,99.66,3.31,7.47,2.38,8.83,2.93,135.88,162.4,38.08_102.65,51.80_127.05,77.14_138.26,102.07_125.93,115.34_101.98,46.81_61.21,57.57_55.22,69.84_59.87,83.28_60.06,94.98_55.54,105.51_61.38,76.55_66.83,76.80_88.97,68.90_94.70,76.93_96.27,84.66_94.55,53.77_69.91,68.11_70.43,85.46_70.43,99.75_70.15,59.78_108.46,72.75_104.45,76.65_105.02,80.42_104.39,94.00_107.92,86.12_113.34,77.45_116.24,68.14_113.85,76.73_107.97,77.28_111.82,60.88_67.86,60.92_70.82,92.75_68.11,92.73_70.92
22.63336515,97.89,0,99.9,3.69,1.5,4.94,12.46,8.05,136.16,160.29,42.85_104.87,54.68_128.98,80.47_141.63,105.19_128.77,116.89_104.51,50.52_65.48,61.13_60.09,72.43_64.70,86.45_64.81,98.14_59.98,109.34_65.56,79.29_72.27,79.87_91.87,70.83_97.70,79.91_99.50,88.89_97.66,56.39_74.28,70.51_74.80,88.96_74.70,103.18_74.28,61.41_111.87,75.75_108.87,79.97_109.80,84.23_108.86,98.31_111.64,90.61_117.67,80.12_120.95,69.40_118.04,79.99_112.84,79.95_116.61,63.52_72.51,63.33_75.08,96.13_72.41,96.21_75.07
22.86733007,99.84,0,99.93,-3.13,-5.41,2.69,6.43,5.46,151.17,161.7,43.93_102.85,57.85_127.03,81.42_140.21,104.62_125.64,118.38_101.43,48.69_63.07,59.61_58.45,71.75_62.82,90.69_63.01,102.52_58.49,113.99_63.03,81.25_72.33,81.51_91.67,71.35_96.46,81.60_98.38,91.67_96.33,54.51_73.53,70.03_74.33,92.62_74.43,108.12_73.64,62.67_110.50,77.56_108.66,81.61_109.69,85.63_108.67,99.67_110.52,91.97_117.92,81.68_121.43,70.71_117.95,81.59_112.07,81.63_116.88,62.36_70.78,62.22_75.02,100.52_70.87,100.52_75.25
23.09877396,99.94,0,99.93,-6.42,-5.03,1.62,1.21,5.45,154.32,160.91,37.64_102.29,51.80_127.19,77.59_139.54,103.42_126.40,116.41_101.40,44.35_62.17,55.86_57.55,68.49_61.92,86.68_62.07,98.88_58.10,111.01_62.24,77.51_71.84,77.55_90.34,67.61_95.35,77.69_97.52,87.97_95.26,50.60_72.72,66.43_73.45,88.87_73.70,104.71_73.22,59.57_109.50,73.81_107.06,78.03_108.12,82.15_107.10,96.33_109.50,88.38_115.91,78.04_118.71,67.54_115.69,78.04_111.56,78.05_113.42,58.50_70.22,58.27_74.32,96.70_70.56,96.86_74.79
23.33312893,0.05,0.42,0,-6.13,-4.87,-2.74,-1.41,6.93,169.05,168.61,44.09_108.43,57.94_134.77,82.64_147.43,107.82_133.38,121.90_107.70,45.85_66.95,57.65_62.02,70.92_65.72,93.95_65.72,107.03_62.01,118.87_66.55,82.43_75.48,82.09_92.95,72.27_100.19,82.33_101.47,92.58_99.84,53.10_76.96,70.57_77.62,94.39_77.70,111.61_76.98,64.84_118.02,78.85_112.76,82.82_113.65,86.69_112.66,100.20_117.53,92.50_124.21,82.57_127.27,72.24_124.52,82.87_117.26,82.66_122.66,61.68_74.19,61.53_78.95,103.30_74.18,103.44_78.95
23.56650805,0,0.43,0,-6.86,-5.78,-2.68,-0.98,7.42,166.73,163.45,41.34_105.93,56.28_131.37,82.88_143.63,105.81_129.36,117.12_104.66,45.62_65.84,58.57_61.22,72.25_65.44,92.69_65.32,105.68_60.90,117.64_65.19,82.62_75.02,83.69_95.34,73.33_101.02,83.43_103.05,92.48_100.77,52.79_75.48,70.18_76.51,93.96_76.48,110.78_75.19,65.49_117.47,79.55_114.17,83.43_115.08,87.31_114.12,99.14_116.87,92.43_122.13,83.24_124.35,73.11_122.51,83.38_118.02,83.20_119.98,61.27_72.62,61.20_78.13,102.92_72.34,103.14_77.74
23.79823399,0,0.34,0,-8.48,-3.98,-3.05,-3.11,7.34,168.69,168.66,37.07_105.39,53.77_134.23,82.19_147.89,105.07_131.63,117.01_103.70,44.05_67.34,57.46_62.69,71.46_67.03,92.79_66.69,105.58_62.56,116.91_66.30,82.25_76.57,84.27_100.88,73.11_104.59,83.38_107.08,92.47_104.10,52.41_77.05,69.60_77.78,93.07_77.61,109.93_76.63,64.84_119.47,79.44_116.58,83.03_117.21,86.48_116.45,97.90_118.58,91.44_125.13,82.78_128.15,72.79_125.64,83.08_119.87,82.73_123.73,60.79_74.14,60.87_79.42,101.88_73.77,102.10_79.08
24.03215504,0,0.36,0,-8.53,-4.59,-4.77,2.84,8.48,166.26,170.42,45.57_110.04,60.51_137.85,85.93_150.50,110.26_135.91,125.01_109.28,49.31_68.14,61.73_64.56,74.63_68.84,96.57_68.81,109.23_64.58,121.13_67.62,85.86_78.47,85.77_99.32,75.81_104.93,85.84_106.64,95.76_104.53,55.98_79.14,73.76_80.17,97.47_80.04,114.91_78.78,68.50_122.46,82.48_117.93,86.13_118.79,89.68_117.92,102.61_121.85,94.93_128.68,85.94_131.51,76.30_128.91,86.23_121.89,86.08_127.42,64.63_76.34,64.46_81.91,106.44_76.02,106.78_81.50
24.26709509,0,0.39,0,-8.16,-3.51,-3.16,-0.93,6.12,167.24,167.52,43.28_106.10,57.00_132.44,83.97_145.73,107.55_130.67,119.45_104.29,45.82_65.93,59.09_62.14,72.56_66.76,92.49_66.37,105.45_61.61,118.06_64.86,82.84_76.63,84.29_99.70,74.12_104.13,83.93_106.36,93.12_103.65,53.19_76.33,70.94_77.53,93.98_77.47,111.64_75.44,65.86_119.12,80.34_115.76,84.01_116.63,87.68_115.65,100.02_118.25,93.01_125.16,83.80_128.28,73.61_125.66,84.17_119.69,83.67_123.57,61.72_73.22,61.79_79.06,103.02_72.57,103.63_78.57
24.49795485,0,0.42,0,-8.28,-3.21,-4.48,0.49,9.81,169.89,165.13,46.35_107.47,59.22_134.65,84.77_147.41,109.94_133.37,122.61_106.91,47.98_69.50,61.05_64.92,74.20_69.32,95.55_69.02,108.88_64.53,121.37_68.53,85.01_79.02,85.46_100.58,75.56_106.51,85.31_107.97,94.79_105.88,55.73_79.36,73.18_80.59,96.51_80.38,113.89_78.46,67.59_121.89,81.86_118.30,85.48_119.08,89.08_118.05,101.89_120.44,94.62_127.32,85.10_130.33,74.91_128.00,85.70_121.62,85.13_125.76,64.31_76.13,64.28_81.90,105.03_75.45,105.71_81.16
24.73184204,0,0.43,0,-7.99,-2.54,-4.8,6.8,11.29,155.6,161,48.36_106.52,61.25_133.74,86.33_145.46,109.19_130.61,120.22_104.65,50.30_67.27,63.11_64.83,75.49_69.46,93.92_69.59,105.56_64.83,117.51_67.06,84.87_78.69,85.57_100.55,75.88_105.15,85.48_107.03,94.75_104.45,56.01_78.45,73.05_79.64,95.76_79.49,112.95_78.17,68.56_121.30,82.08_118.36,85.70_119.38,89.27_118.20,101.28_120.25,94.14_126.76,85.92_129.42,76.64_127.46,85.90_121.78,85.84_125.69,64.46_75.86,64.41_81.58,104.51_75.48,104.81_81.19
24.96600103,0.26,0.42,0,-8.92,-1.98,-6.99,6.72,13.95,158.71,160.03,47.79_108.41,61.86_135.96,86.38_147.30,110.60_134.44,124.17_107.91,51.08_68.52,62.73_66.51,73.99_70.44,96.09_70.51,108.19_66.85,119.64_69.12,85.51_79.69,86.09_101.81,76.23_106.37,86.08_108.13,95.14_105.97,56.91_80.41,73.36_81.30,97.13_81.59,114.12_80.81,68.49_122.19,82.70_118.59,85.77_119.41,88.94_118.61,102.10_121.11,93.96_127.01,85.88_129.14,77.07_127.50,86.03_121.83,85.84_125.43,65.14_78.59,65.02_82.91,105.57_78.55,105.82_83.07
25.19960904,14.72,0.15,0.03,-9.06,-0.81,-5.05,8.38,10.46,150.63,154.94,46.26_101.25,60.41_127.99,85.07_139.57,108.50_126.11,121.67_100.67,50.49_64.06,61.99_62.26,73.53_65.61,91.73_65.28,104.20_61.58,115.55_64.45,82.29_75.43,82.61_98.12,74.08_101.99,82.57_103.83,90.96_101.58,55.80_75.61,71.60_76.56,93.88_76.42,110.34_75.09,67.45_117.02,79.91_114.75,82.62_115.59,85.44_114.59,98.10_116.20,90.43_120.93,83.15_122.79,75.58_121.41,82.90_118.09,83.09_118.96,63.63_74.09,63.51_78.43,102.15_73.44,102.32_77.93
25.43276906,7.99,0.24,0.01,-10.2,-0.16,-4.95,7.03,12.6,154.22,154.64,47.87_103.91,60.48_129.29,85.67_141.47,108.95_127.69,119.75_103.59,50.14_66.93,62.07_63.88,73.95_68.07,92.67_67.81,105.32_63.79,116.76_67.61,83.23_78.07,83.76_99.48,74.45_103.33,83.45_105.11,92.46_102.94,55.73_77.34,72.21_78.50,94.39_78.70,111.47_77.60,67.30_118.19,80.49_116.33,83.58_117.27,86.84_116.22,99.59_117.56,91.93_123.15,83.80_125.25,75.30_123.22,83.91_119.27,83.90_121.74,63.76_75.12,63.70_80.37,103.21_75.19,103.45_80.56
25.6640439,0.94,0.14,0,-11.72,-1.28,-5.47,7.05,14.54,153.08,154.76,46.75_104.26,60.93_131.64,85.77_143.51,108.99_130.10,121.22_103.12,49.84_66.45,61.30_65.38,73.03_68.96,92.26_69.59,104.38_66.84,115.96_68.62,83.29_77.58,84.44_100.52,74.69_103.95,84.43_105.35,93.22_103.76,55.81_78.42,72.03_79.00,94.02_79.54,110.17_79.52,68.28_119.06,81.98_116.07,84.40_116.80,86.88_116.10,99.05_118.85,91.53_124.40,84.58_125.98,76.63_124.56,84.57_119.16,84.55_122.32,64.08_78.07,63.91_80.72,102.00_78.85,102.04_81.44
25.89866209,0.54,0.41,0,-12.21,-0.51,-6.06,8.18,15.18,154.67,152.35,48.87_105.18,62.06_130.82,86.74_142.14,110.49_129.14,122.87_104.51,51.42_67.38,62.97_65.65,74.50_69.52,94.03_69.44,106.51_65.51,118.23_67.97,84.10_79.32,84.97_102.30,75.88_105.68,85.10_107.46,93.78_105.17,56.90_78.81,73.28_80.04,95.48_80.17,112.92_78.97,68.98_119.77,82.36_117.83,85.07_118.52,88.05_117.62,100.46_118.74,92.84_123.74,85.28_125.83,77.01_124.26,85.39_120.39,85.22_122.58,65.01_77.26,64.87_81.84,104.33_77.01,104.62_81.91
26.13293004,0.13,0.42,0,-10.83,-1.46,-5.54,12.02,10.98,145.72,158.54,46.86_105.33,61.49_132.17,86.44_143.09,109.36_129.80,121.88_103.80,52.76_64.62,63.98_63.03,74.77_66.77,94.06_66.78,104.73_62.91,115.70_64.55,84.35_75.58,85.39_98.61,75.45_102.80,85.15_104.10,94.23_102.20,57.74_75.76,73.58_76.60,94.71_76.71,111.28_75.91,68.40_118.48,82.04_116.16,84.92_117.01,87.95_115.98,100.35_117.49,92.12_122.61,85.44_124.62,77.57_123.11,85.25_119.21,85.32_121.48,65.73_73.06,65.77_78.73,102.97_73.01,103.10_78.85
26.36677408,0.81,0.38,0,-4.02,2.01,-4.02,8.88,10.78,147.68,162.59,44.63_106.80,57.24_134.05,83.99_146.27,108.60_131.68,119.35_104.95,50.16_66.35,62.17_63.50,73.86_68.12,91.31_68.49,102.46_63.77,113.95_66.83,82.43_76.82,83.26_98.23,74.01_103.77,83.27_105.33,92.03_103.09,55.73_76.65,71.82_77.85,92.95_77.92,109.26_76.94,66.63_120.34,79.94_117.46,83.21_118.31,86.42_117.40,98.35_119.70,90.54_123.82,83.44_125.49,75.25_124.20,83.39_120.90,83.31_122.07,63.58_73.65,63.60_79.55,101.35_73.81,101.29_79.75
26.59873796,0,0.42,0,-7.66,-1.73,-2.02,0.63,3.9,154.53,161.12,38.94_101.82,51.49_127.35,77.72_138.16,103.83_126.43,115.56_100.82,43.83_59.17,55.94_56.14,68.30_60.83,86.66_61.10,98.54_56.69,110.58_59.74,76.95_69.60,77.54_89.55,67.69_95.75,77.82_96.58,87.51_95.46,49.79_70.21,66.43_71.27,88.34_71.56,105.28_70.68,59.75_113.43,74.03_109.93,77.61_110.99,81.30_109.92,94.24_112.95,85.50_116.63,77.45_117.54,68.71_116.90,77.85_113.81,77.40_114.01,58.08_67.09,57.94_73.33,96.90_67.49,96.94_73.71
26.83181715,0.01,0.4,0,-5.31,-2.86,1.82,6.81,1.73,144.22,161.72,41.44_98.37,55.00_124.69,79.99_136.50,103.06_122.98,115.04_97.22,47.12_58.68,58.74_55.15,70.55_59.31,86.28_58.86,98.12_54.98,109.42_59.03,78.30_68.85,79.17_91.04,70.00_95.57,78.89_97.55,87.53_95.20,53.14_68.81,68.73_69.94,87.83_70.11,103.99_68.74,61.44_110.71,75.08_108.33,78.53_109.26,82.15_108.25,94.70_110.00,87.27_116.20,79.05_118.58,69.99_116.62,78.74_111.97,79.07_114.50,60.93_65.49,60.92_71.75,95.99_65.42,96.27_71.86
27.06581211,0,0.23,0,-7.58,-1.58,0.63,7.58,2.7,140.8,155.31,41.85_94.79,54.32_121.27,78.73_132.12,101.90_119.20,113.58_94.39,46.94_58.06,58.23_53.91,70.00_57.75,84.65_57.47,97.12_53.98,107.76_58.77,77.14_67.19,77.86_90.92,69.26_94.75,77.58_96.95,85.97_94.10,52.29_67.38,67.49_68.46,86.65_68.59,102.23_67.26,61.47_108.41,74.28_106.15,77.65_106.92,80.99_106.01,92.85_107.89,85.68_113.23,77.79_115.16,69.10_113.43,77.81_109.80,77.93_110.97,59.65_64.13,59.78_70.11,94.47_63.97,94.83_70.13
27.29867983,0,0.42,0,-10.79,-4.08,0.98,5.28,0.84,140.05,150.79,39.02_89.20,51.02_114.67,74.87_126.50,97.38_113.67,109.03_89.10,44.43_53.29,55.75_50.35,67.39_54.57,82.29_54.62,93.87_50.42,104.92_53.23,74.50_63.79,74.68_85.85,65.91_89.41,74.53_91.60,83.04_89.10,50.15_62.97,65.09_64.43,83.85_64.53,98.90_63.10,58.79_102.20,71.30_100.87,74.69_101.79,78.04_100.85,89.45_101.81,82.83_107.35,74.56_109.32,65.87_107.54,74.71_104.91,74.70_104.94,57.55_60.28,57.38_66.19,91.62_60.30,91.85_66.28
27.53284502,0,0.43,0,-5.91,-6.97,-1.91,-0.14,4.74,140.54,141.55,35.40_90.01,47.76_113.90,69.93_122.70,92.74_112.92,105.08_89.78,39.15_54.01,49.66_50.91,60.73_54.23,78.06_54.28,89.24_51.10,99.85_54.37,69.31_62.26,69.20_78.87,61.04_85.33,69.31_85.57,77.70_85.06,45.10_63.65,59.46_64.22,79.44_64.35,94.02_63.90,54.75_101.57,66.17_97.23,69.69_98.05,73.19_97.15,84.57_100.73,77.12_104.65,69.81_105.52,62.00_104.82,69.88_101.21,69.85_101.91,52.24_60.73,52.23_65.78,86.72_60.92,86.63_65.92
27.76229405,0,0.43,0,-7.32,-5.08,-7.24,5.25,12.21,142.99,136.75,42.70_94.47,54.38_117.15,75.24_126.17,97.04_117.08,109.86_95.10,45.22_61.75,55.32_57.26,66.58_60.61,84.64_60.69,96.33_57.53,106.98_62.08,75.53_68.67,75.18_89.48,67.32_93.37,74.97_95.21,83.14_93.33,51.91_69.33,65.78_70.24,85.66_70.51,100.10_69.61,61.40_105.22,72.13_102.70,75.27_103.32,78.36_102.66,88.73_105.10,82.83_109.26,75.05_111.09,66.99_109.28,75.42_105.88,75.14_106.86,58.59_66.84,58.54_71.31,92.96_67.04,93.11_71.70
28.00256395,0,0.09,0,-5.14,-5.31,-16.72,7.19,20.68,159.99,149.9,48.73_110.66,62.97_134.39,85.90_145.59,109.70_134.64,124.00_111.86,51.92_74.59,63.87_69.95,76.41_73.54,96.43_73.60,109.14_70.11,121.02_75.23,86.45_82.29,86.57_98.54,79.24_105.93,86.38_106.48,94.02_106.05,59.80_83.55,75.25_84.61,97.47_84.80,113.29_84.12,73.55_120.38,84.17_114.94,87.04_115.72,90.06_114.98,99.86_120.02,94.25_126.21,86.42_128.69,78.71_126.26,86.93_118.93,86.66_124.08,67.36_81.30,67.09_85.26,105.54_81.52,105.69_85.59
28.23144484,1.85,0.37,0,-9.15,-6.01,-1.09,7.67,3.24,128.28,145.16,39.58_87.42,50.85_112.81,72.40_124.21,94.32_110.71,106.45_86.34,43.53_53.05,53.30_50.86,63.70_54.39,78.56_54.13,88.52_50.76,98.94_52.69,71.29_63.17,72.00_85.24,63.35_87.69,71.72_89.37,79.93_87.59,48.71_62.36,63.07_63.79,79.90_63.87,94.42_62.29,56.36_100.91,69.22_100.50,71.77_101.33,74.46_100.48,86.34_100.82,78.73_105.83,71.50_107.18,63.97_105.78,71.87_102.34,71.58_104.90,55.76_60.40,55.64_65.44,86.85_60.18,87.26_65.22
28.45800018,17.04,0.12,0.04,-10.31,-1.86,-1.19,9.96,4.56,128.17,144.17,39.44_88.38,50.83_112.92,74.44_124.71,96.89_111.95,107.46_87.45,45.79_53.74,55.79_51.76,66.42_55.41,80.13_55.39,90.48_51.60,101.16_53.24,73.18_63.62,73.85_85.93,64.19_88.88,73.76_90.21,82.98_88.93,50.70_63.14,65.03_64.71,82.03_64.65,96.50_63.21,57.31_101.47,71.00_100.96,73.91_101.91,77.01_100.95,89.87_101.22,81.25_105.80,73.74_107.26,66.14_105.93,73.98_103.55,73.83_104.52,58.04_61.28,57.74_66.05,88.94_61.27,89.25_65.94
28.69282293,4.99,0.38,0,-13.53,0.06,-0.01,10.87,2.24,125.04,144.03,38.25_85.55,49.08_109.59,72.74_122.26,96.79_109.98,107.12_85.83,45.82_51.50,55.43_49.12,65.91_53.01,78.81_53.22,89.47_49.47,99.83_52.19,71.71_60.55,71.54_83.20,62.60_86.10,71.86_88.21,81.43_86.42,50.46_60.25,64.45_62.21,80.79_62.38,95.07_61.01,55.83_97.47,69.02_97.78,72.06_98.84,75.28_97.94,89.17_97.71,80.38_102.75,72.17_104.45,64.23_102.45,72.10_101.04,72.34_101.11,57.62_58.45,57.16_63.32,87.71_58.97,87.85_63.79
28.93029785,4.92,0.31,0,-15.25,0.66,0.66,11.58,3.27,123.5,144.19,38.04_86.27,49.03_110.07,72.74_123.43,96.46_110.48,106.83_86.85,46.10_52.29,56.07_50.20,66.62_54.39,78.58_54.50,89.09_50.57,99.44_53.14,72.26_61.75,72.06_84.74,63.48_87.24,72.11_89.71,81.32_87.90,51.04_61.12,65.08_63.09,80.77_63.17,94.70_61.70,56.55_98.02,69.30_99.10,72.26_100.07,75.32_99.30,88.79_98.41,80.40_103.81,72.44_105.59,64.82_103.32,72.35_101.95,72.50_102.60,58.15_59.14,57.74_64.19,87.54_59.58,87.74_64.54
29.16706991,51.05,0.01,16.42,-13.13,-0.35,-1.67,4.15,4.96,134.4,142.87,35.63_91.72,48.06_113.53,72.81_124.02,95.35_112.06,106.14_90.26,41.73_54.12,52.63_51.40,63.91_55.45,78.55_55.35,89.16_51.64,99.78_54.41,71.01_63.38,72.04_86.02,62.49_89.29,71.96_90.77,81.00_89.02,47.37_63.18,62.42_64.83,80.40_64.96,95.33_63.47,55.69_101.93,69.31_101.08,72.11_101.90,75.04_101.10,87.20_101.71,78.99_104.73,72.02_106.13,64.43_104.97,72.13_104.11,71.99_103.19,55.09_60.36,54.83_66.20,87.75_60.49,87.93_66.34
29.39836788,36.78,0.09,1.44,-15.04,-1.39,-0.02,-0.26,2.96,133.54,145.82,29.87_87.15,42.74_111.88,67.50_124.47,91.35_111.01,102.35_85.61,37.07_53.22,47.78_50.48,59.15_53.48,72.80_53.71,83.70_50.86,94.75_53.95,65.83_61.27,66.54_85.91,56.56_88.03,66.71_89.89,76.43_88.04,42.23_61.06,57.07_63.20,75.44_63.21,90.31_61.55,49.11_99.10,63.45_99.08,66.73_99.99,70.21_99.13,83.89_98.85,75.48_104.44,66.99_106.64,58.25_104.61,66.85_101.89,66.96_103.14,50.12_59.76,49.57_64.13,82.66_60.09,82.90_64.48
29.63337612,76.19,0,95,-11.03,2.41,-3.13,8.27,4.45,134.84,146.72,37.89_89.98,50.80_115.35,74.87_126.71,99.20_114.85,112.62_90.43,45.97_54.65,56.22_52.43,67.37_56.20,82.29_56.20,93.49_52.59,104.21_55.17,74.41_64.98,74.40_86.71,65.35_90.53,74.42_92.00,83.85_90.60,50.25_64.56,65.59_65.94,84.30_66.04,99.86_64.88,58.59_104.42,71.61_102.56,74.46_103.52,77.53_102.70,89.88_104.34,81.69_108.36,74.33_109.33,66.92_108.37,74.54_105.81,74.52_106.51,57.92_62.29,57.69_67.61,92.05_62.36,92.15_67.75
29.86503696,22.47,0.08,0.11,-12.64,-0.85,-2.03,7.27,5.73,121.87,139.94,30.89_82.92,44.01_110.62,67.28_122.35,91.04_110.56,103.75_83.07,41.34_50.99,50.28_50.66,59.27_53.49,74.98_53.90,84.32_51.17,93.98_51.82,67.14_59.73,67.07_82.29,58.59_84.06,67.11_85.90,75.84_84.17,45.14_59.09,58.97_60.29,75.86_60.55,89.84_59.84,51.79_94.57,64.02_93.34,66.97_93.97,70.13_93.42,82.54_94.69,74.63_101.32,67.10_102.93,59.68_101.12,67.06_96.47,67.25_99.36,52.23_58.63,51.93_61.35,82.73_59.22,82.79_61.85
30.09728003,11.75,0.21,0.02,-14.52,3.32,-1.76,10.74,1.21,126.11,142.53,37.78_82.62,50.01_107.71,72.50_119.98,95.90_107.91,108.62_83.87,45.99_51.02,56.48_47.58,67.15_52.50,78.65_52.49,89.32_47.71,100.46_51.00,72.62_59.39,72.17_82.34,64.37_85.38,72.27_87.65,80.77_85.60,50.90_58.79,64.83_60.69,81.06_60.59,95.13_58.85,57.34_96.30,69.22_95.75,72.21_96.52,75.31_95.77,88.03_96.06,80.42_100.68,72.56_102.28,64.94_100.74,72.21_98.49,72.75_99.72,57.97_56.34,57.64_61.55,87.99_56.19,88.10_61.48
30.3327179,87.07,0,99.28,-12.11,1.06,-1.83,4.02,1.39,122.44,143.66,28.17_86.76,41.47_110.22,64.47_121.11,88.62_109.60,101.73_85.74,38.25_48.26,46.45_47.76,55.36_49.70,73.36_49.97,82.24_48.06,91.14_48.65,63.96_58.62,63.74_80.92,55.06_82.91,64.02_84.30,73.58_82.79,39.97_57.61,55.11_58.82,74.02_59.07,89.51_58.14,49.11_94.55,61.51_92.86,64.44_93.68,67.47_92.85,80.02_94.71,71.51_100.07,64.39_101.99,57.36_99.85,64.58_96.80,64.51_97.98,47.67_55.38,47.53_60.54,81.54_55.80,81.59_60.94
30.56641102,49.98,0.05,13.89,-12.77,2.76,-2.62,8.55,4.47,130.77,143.36,37.66_87.19,49.91_111.88,74.36_123.94,98.30_111.49,110.49_87.21,45.10_54.53,55.56_51.07,67.13_55.78,79.43_55.93,90.57_51.26,101.59_54.59,72.90_62.44,72.78_85.86,64.45_89.21,73.12_91.39,82.10_89.28,50.54_62.85,64.71_64.59,82.70_64.54,97.15_63.06,57.36_99.86,70.20_100.37,73.48_100.98,76.80_100.34,89.82_99.67,81.87_104.03,73.79_105.98,65.37_104.23,73.45_103.13,73.78_102.96,57.74_60.46,57.45_65.42,89.90_60.60,90.02_65.52
