time,smile,disgust,joy,pitch,yaw,roll,frame_x,frame_y,frame_width,frame_height,face_point_0,face_point_1,face_point_2,face_point_3,face_point_4,face_point_5,face_point_6,face_point_7,face_point_8,face_point_9,face_point_10,face_point_11,face_point_12,face_point_13,face_point_14,face_point_15,face_point_16,face_point_17,face_point_18,face_point_19,face_point_20,face_point_21,face_point_22,face_point_23,face_point_24,face_point_25,face_point_26,face_point_27,face_point_28,face_point_29,face_point_30,face_point_31,face_point_32,face_point_33
0.11305999755859375,51.47,0.01,17.48,-9.90,0.16,1.91,-0.61,2.45,121.47,125.83,29.90_74.56,38.15_96.28,58.93_107.31,79.93_96.08,89.02_74.03,33.34_46.98,41.66_43.58,51.08_46.79,68.11_46.89,77.54_43.68,85.81_47.17,59.64_56.11,59.66_74.23,51.18_74.49,59.47_77.47,67.86_74.62,37.11_55.83,50.39_55.90,68.79_55.77,82.11_55.65,46.00_86.62,55.82_83.77,59.47_84.80,62.94_83.66,72.08_86.57,66.34_90.60,59.14_92.33,51.64_90.65,59.38_86.40,59.21_89.68,43.45_53.87,43.21_57.77,75.91_53.68,75.84_57.56
0.32049083709716797,87.25,0.00,99.30,-8.21,1.12,1.50,1.65,0.93,115.22,129.54,29.70_75.04,38.71_96.94,58.93_108.88,79.52_96.90,88.33_74.80,33.86_46.97,41.40_42.93,50.49_45.91,66.76_46.12,75.96_43.08,83.63_47.33,58.66_54.59,58.79_73.97,51.04_74.68,58.69_77.40,66.47_74.70,37.22_55.29,50.03_55.07,67.67_54.99,80.36_55.34,45.75_86.41,55.51_83.92,58.74_84.80,61.87_83.79,71.25_86.31,65.57_90.66,58.74_92.29,51.70_90.91,58.73_86.66,58.66_89.42,43.21_53.21,43.18_57.08,74.59_53.19,74.37_57.06
0.5198497772216797,91.65,0.00,99.68,-10.33,0.78,1.82,-0.57,4.34,123.60,125.60,30.55_76.75,39.13_98.69,60.28_109.00,81.90_98.32,91.40_75.87,33.98_49.19,42.98_45.44,52.96_49.07,68.43_49.35,78.47_45.65,87.37_49.42,60.64_57.64,60.72_76.27,52.61_77.16,60.65_80.32,68.79_77.33,38.86_57.60,51.65_57.99,70.03_57.85,82.81_57.51,47.42_89.12,56.89_86.27,60.64_87.33,64.27_86.18,72.90_88.97,67.68_92.59,60.33_94.22,52.71_92.74,60.60_89.32,60.40_91.19,44.95_55.53,44.71_59.64,76.72_55.35,76.83_59.41
0.7201569080352783,67.66,0.00,80.10,-12.62,0.76,1.06,-0.04,3.52,119.72,121.56,29.63_72.56,37.59_94.08,59.45_104.82,81.40_93.79,89.97_71.82,33.42_46.88,42.05_43.45,51.58_46.24,66.96_46.37,76.52_43.26,85.14_46.61,59.36_55.25,59.48_72.70,51.39_73.98,59.45_77.13,67.63_74.08,38.54_55.11,50.47_55.45,68.57_55.19,80.34_54.76,46.74_86.62,55.52_84.04,59.42_85.09,63.27_83.97,71.66_86.21,66.74_88.97,59.41_90.39,51.95_89.17,59.46_87.36,59.37_87.43,44.32_52.97,44.05_56.98,74.61_52.72,74.72_56.63
0.9212360382080078,75.78,0.00,94.63,-12.03,0.51,1.92,1.27,3.62,116.08,120.67,30.10_73.58,37.28_94.16,58.27_104.17,79.80_94.10,87.97_73.34,33.72_46.88,41.99_43.25,51.26_46.52,66.40_46.75,75.68_43.32,83.86_47.09,58.81_55.06,58.81_74.05,51.10_74.89,58.69_77.85,66.50_75.09,37.59_55.13,50.30_55.46,67.37_55.42,79.88_55.14,45.91_86.55,55.28_84.11,58.81_85.12,62.26_84.04,71.01_86.38,65.45_89.23,58.47_90.48,51.34_89.27,58.77_87.04,58.53_87.49,43.69_52.70,43.44_57.20,74.08_52.63,74.02_57.13
1.1221659183502197,58.94,0.01,45.20,-9.99,0.37,1.90,2.84,2.38,116.86,129.03,31.59_75.31,39.72_97.64,60.34_109.91,81.04_98.01,89.73_75.51,35.51_48.32,43.56_44.37,52.91_47.82,68.38_47.99,77.89_44.46,85.98_48.64,60.50_56.51,60.59_75.44,53.04_76.48,60.46_79.11,68.11_76.37,39.42_56.55,52.33_56.74,69.34_56.66,82.10_56.56,47.73_87.93,57.43_85.30,60.81_86.24,64.07_85.16,72.83_87.72,67.60_91.97,60.50_93.91,53.08_92.35,60.76_88.11,60.45_90.64,45.45_54.31,45.36_58.49,76.24_54.28,76.16_58.48
1.3229899406433105,73.38,0.00,91.93,-15.07,0.83,1.22,-2.26,3.86,122.60,120.48,28.23_71.63,36.23_92.56,59.07_104.26,81.61_92.24,89.83_70.87,32.02_46.31,40.71_43.26,50.10_46.01,66.76_46.34,76.28_43.19,84.97_46.48,58.61_56.14,58.75_72.72,50.06_73.64,58.71_77.16,67.66_73.94,36.55_54.61,49.46_55.35,68.01_55.22,80.57_54.49,44.93_86.44,54.45_84.37,58.49_85.50,62.72_84.33,71.80_86.05,66.53_88.39,58.67_89.76,50.80_88.58,58.60_88.03,58.64_86.65,42.81_52.47,42.60_56.86,74.52_52.34,74.56_56.72
1.5239129066467285,26.61,0.01,0.23,-16.80,0.92,1.82,-0.82,5.98,126.11,118.91,31.08_71.61,39.75_92.83,61.98_105.07,83.92_92.84,93.12_71.20,34.43_47.83,43.21_44.82,52.96_47.34,69.90_47.82,79.76_44.96,88.90_48.37,61.73_58.51,61.76_74.51,52.55_74.92,61.65_78.53,71.18_75.38,38.67_55.97,52.26_57.02,71.21_56.92,84.76_56.12,47.28_86.70,57.80_85.07,61.45_86.18,65.27_85.06,75.55_86.71,69.82_89.35,61.61_90.81,53.45_89.46,61.49_88.90,61.63_87.57,45.42_54.14,45.16_58.62,78.12_54.13,78.19_58.67
1.7246239185333252,41.87,0.01,3.57,-15.33,0.51,1.56,-2.50,3.31,124.19,122.83,29.32_72.27,37.62_93.61,59.60_105.67,80.67_93.35,89.91_71.62,32.22_47.10,40.74_43.73,50.19_46.23,67.57_46.99,77.02_44.05,85.86_47.58,59.17_57.38,59.45_73.83,50.57_74.50,59.28_78.05,68.52_75.06,36.63_55.34,49.73_56.25,68.61_56.21,81.59_55.62,45.31_87.08,55.44_85.00,59.24_86.07,63.19_84.99,72.35_87.09,67.05_90.39,59.12_91.97,51.10_90.30,59.21_88.61,59.19_88.79,43.03_53.38,42.75_57.68,75.27_53.43,75.41_57.75
1.925266981124878,80.44,0.00,97.62,-15.93,0.45,1.86,2.82,5.87,116.78,118.08,31.82_72.17,38.51_92.88,60.43_104.27,82.23_92.87,90.03_72.07,35.46_47.74,44.20_44.62,53.34_47.57,67.92_47.95,77.23_44.65,85.90_47.72,60.73_56.82,60.64_74.09,52.78_75.01,60.63_78.56,68.65_75.25,40.31_55.84,52.34_56.58,69.38_56.43,81.08_55.72,48.00_87.42,56.78_85.37,60.52_86.49,64.28_85.31,72.34_86.94,67.66_89.29,60.47_90.73,53.08_89.53,60.57_88.61,60.49_87.82,46.14_53.59,45.78_58.04,75.43_53.49,75.52_57.85
2.126652956008911,76.62,0.00,95.35,-16.19,-0.13,1.47,1.46,3.72,120.61,120.75,32.11_71.45,39.40_92.46,61.15_104.34,82.50_92.47,90.57_71.27,35.18_46.64,43.84_43.42,53.22_45.88,69.40_46.20,78.84_43.43,87.28_46.51,61.31_56.05,61.39_73.82,53.00_74.24,61.27_77.83,69.83_74.36,39.72_54.91,52.37_55.54,70.54_55.34,82.95_54.75,48.20_86.78,57.48_84.95,61.32_86.05,65.19_84.91,73.71_86.60,68.69_89.31,61.41_90.79,53.87_89.45,61.31_88.44,61.39_87.83,45.89_52.62,45.57_57.25,77.02_52.43,77.14_57.01
2.327944755554199,70.53,0.00,87.15,-15.20,-0.66,1.62,4.39,4.94,116.90,122.82,33.61_74.67,41.03_96.24,61.84_107.29,82.50_95.91,90.83_74.05,37.07_48.82,45.80_45.44,55.01_49.04,70.24_49.24,79.34_45.55,87.56_48.63,62.48_57.93,62.53_77.04,54.24_77.15,62.34_80.59,70.64_77.26,41.36_56.96,54.17_57.61,71.11_57.52,83.56_56.86,49.82_89.02,58.91_86.74,62.48_87.88,65.99_86.65,74.01_88.91,69.23_92.22,62.32_93.89,55.09_92.38,62.47_89.82,62.43_90.87,47.62_54.74,47.28_59.33,77.64_54.56,77.79_59.13
2.528920888900757,97.97,0.00,99.90,-15.94,0.59,1.64,2.78,6.93,119.92,119.62,33.36_73.95,39.94_95.36,62.24_106.62,84.16_94.94,92.09_73.92,36.30_49.81,45.49_46.26,55.06_49.69,69.20_50.13,79.00_46.34,88.10_49.84,62.35_58.71,62.34_76.11,54.23_77.44,62.25_80.88,70.50_77.68,41.56_57.79,53.75_58.91,70.79_58.83,82.69_57.82,48.80_88.98,58.17_87.18,62.21_88.18,66.19_87.12,74.96_88.64,70.05_91.44,62.16_93.16,54.11_91.58,62.27_90.25,62.17_89.93,47.45_55.46,47.03_60.14,76.97_55.47,77.20_60.01
2.7295780181884766,77.86,0.00,96.25,-12.93,-1.66,1.47,6.61,4.21,114.18,130.33,34.69_77.46,42.48_99.77,62.86_112.82,82.57_99.84,90.56_76.97,38.53_51.12,46.61_46.87,55.71_50.39,71.28_50.58,80.29_46.98,87.85_51.04,63.46_59.72,63.75_79.08,55.49_79.43,63.44_82.62,71.46_79.52,42.40_58.72,55.24_59.39,71.72_59.35,84.08_58.76,50.13_90.51,60.12_88.62,63.65_89.57,67.07_88.51,75.52_90.44,70.60_95.29,63.27_97.50,55.48_95.48,63.57_91.42,63.30_94.14,48.51_56.36,48.28_60.85,78.48_56.37,78.45_60.82
2.9306108951568604,5.24,0.21,0.00,-16.74,-0.84,1.55,4.04,4.66,117.57,123.44,34.04_72.82,40.76_95.34,61.82_107.53,82.63_95.50,90.08_73.07,36.91_48.89,45.84_45.43,55.29_49.35,69.65_49.55,79.09_45.40,87.69_48.65,62.27_58.39,62.39_76.47,54.78_77.06,62.17_80.33,69.89_77.08,41.35_56.72,54.38_57.62,70.73_57.48,83.39_56.62,49.81_88.25,58.95_86.29,62.61_87.33,66.25_86.16,74.20_88.05,69.71_92.06,62.38_94.15,54.72_92.30,62.52_89.20,62.40_90.94,47.45_54.67,47.13_59.18,77.72_54.57,77.77_59.02
3.1313247680664062,94.70,0.00,99.81,-14.60,0.25,1.45,4.58,8.19,116.99,122.49,34.72_75.96,40.01_97.88,62.46_110.27,84.57_97.37,90.64_76.10,37.29_52.58,46.23_48.54,55.75_52.46,69.40_52.79,78.95_48.60,87.82_52.28,62.47_61.55,62.44_76.90,53.86_78.50,62.47_81.67,71.28_78.37,42.08_60.06,54.43_60.77,70.91_60.71,83.04_59.89,49.75_90.69,58.43_88.59,62.65_89.67,66.79_88.51,75.12_90.41,70.76_94.52,62.53_96.76,54.20_94.62,62.61_91.70,62.56_93.45,48.01_57.70,47.66_62.10,77.38_57.56,77.47_61.87
3.329780101776123,81.44,0.00,98.01,0.22,2.28,1.70,8.65,10.59,107.16,123.61,36.56_82.57,41.89_102.55,60.84_113.59,81.08_102.56,87.31_82.45,38.60_55.26,45.76_50.25,54.20_53.12,68.96_53.03,77.65_50.13,84.89_54.78,61.31_62.25,60.78_76.24,52.27_78.28,60.94_80.32,69.92_77.90,41.36_62.83,53.49_62.54,69.95_62.53,82.25_62.53,48.15_91.00,57.76_87.25,61.46_88.16,65.13_87.03,74.52_90.92,68.28_94.44,61.03_95.93,53.83_94.55,61.48_90.55,61.11_92.91,47.03_59.92,46.96_64.11,76.42_59.74,76.35_63.87
3.5330958366394043,99.99,0.00,99.93,3.94,7.66,3.48,8.28,12.58,110.77,122.40,36.56_82.34,43.89_102.82,60.68_114.58,82.02_104.36,91.43_84.01,39.24_56.93,46.00_51.81,54.20_54.26,70.81_54.39,79.64_52.26,87.09_57.38,61.80_63.52,60.06_75.72,51.98_77.90,60.38_80.12,69.78_78.08,42.62_63.66,53.77_63.76,71.42_63.87,83.24_63.97,47.28_89.63,56.87_85.58,60.60_86.39,64.31_85.63,76.90_89.65,70.51_95.42,60.82_97.34,52.54_94.93,60.75_89.25,61.12_93.54,47.92_61.47,47.80_64.79,77.29_61.52,77.04_64.94
3.734241008758545,97.97,0.00,99.90,7.09,2.15,1.09,9.07,13.89,104.07,116.39,35.35_80.96,40.57_100.43,60.38_110.88,81.44_99.99,87.17_80.92,38.16_55.90,44.91_50.59,53.09_52.87,68.36_52.77,76.57_50.74,83.11_55.89,60.72_61.18,60.25_70.82,51.34_74.24,60.48_76.03,69.68_74.00,41.64_61.67,52.79_61.34,68.87_61.41,80.03_61.67,46.56_87.34,56.73_83.22,60.64_84.19,64.54_83.20,74.87_87.16,69.11_90.91,60.55_92.41,52.09_90.86,60.73_86.70,60.75_89.39,46.82_58.71,46.91_62.61,74.72_58.66,74.49_62.52
3.9350438117980957,99.97,0.00,99.93,3.73,2.77,2.02,8.64,7.43,105.49,126.83,36.16_82.85,42.26_102.01,59.83_113.12,79.20_102.11,85.55_83.02,38.13_54.13,44.66_48.57,53.03_51.08,68.86_51.20,77.16_48.72,83.70_54.01,60.36_60.10,59.60_73.81,51.42_76.35,59.74_78.16,68.52_76.24,40.79_62.09,52.05_61.67,69.55_61.67,81.25_62.04,46.13_88.99,56.60_85.44,60.23_86.38,63.82_85.30,74.92_88.80,68.96_94.69,60.35_96.96,51.76_94.83,60.31_88.38,60.38_93.79,45.93_59.75,45.95_62.73,75.74_59.70,75.63_62.79
4.136046886444092,56.13,0.01,33.09,-0.03,1.58,0.37,7.28,9.61,107.34,125.15,35.80_81.83,42.36_101.96,60.36_113.90,79.19_101.30,86.19_81.38,37.28_55.39,44.03_50.56,52.38_52.19,68.51_52.22,76.90_49.96,83.65_54.31,60.43_62.83,60.41_73.45,51.24_77.41,60.43_78.95,69.79_77.05,40.45_63.21,51.99_62.78,68.87_62.67,80.34_62.54,47.39_92.20,57.29_87.06,60.52_88.01,63.67_86.87,73.48_91.75,68.30_95.50,60.40_97.12,52.35_95.71,60.60_91.10,60.46_93.26,46.03_60.58,46.00_64.40,74.82_60.05,74.73_63.84
4.337226867675781,87.49,0.00,99.33,-0.94,2.93,2.39,9.40,10.92,105.18,125.16,35.97_83.53,44.05_104.12,60.02_115.23,77.91_104.45,86.95_84.14,38.80_56.36,44.72_52.13,52.91_54.41,69.66_54.15,78.03_51.87,84.23_55.70,61.11_62.98,60.14_76.33,51.10_78.80,60.26_81.05,69.81_78.75,41.53_64.72,52.34_64.25,70.46_64.10,81.70_64.25,47.66_93.46,57.12_89.67,60.52_90.74,63.80_89.61,74.26_93.53,68.79_98.53,60.54_100.46,52.56_98.52,60.47_93.33,60.71_96.16,46.60_62.64,46.59_65.56,76.34_62.20,76.29_65.17
4.538930892944336
4.744050979614258
4.9427900314331055
7.398897886276245,23.51,0.00,0.13,-5.54,2.69,1.85,1.13,6.88,123.85,121.20,33.68_77.93,41.08_98.13,61.85_107.88,84.53_98.15,93.32_77.86,35.75_50.52,43.93_45.80,54.14_48.21,70.24_48.25,80.66_45.86,89.25_50.74,62.12_57.30,62.03_74.94,54.82_76.99,62.09_79.17,69.67_76.92,40.73_57.67,53.77_57.76,71.28_57.64,84.41_57.57,48.85_87.88,59.09_86.04,62.32_86.91,65.41_85.95,75.49_87.91,68.89_90.07,61.95_91.06,54.93_89.93,62.28_88.86,62.01_88.23,46.74_55.03,46.70_59.77,78.10_54.94,78.11_59.70
7.546511888504028,85.49,0.00,99.04,-3.18,2.03,1.79,4.57,10.58,119.10,118.18,35.73_78.41,42.81_98.76,63.04_109.06,84.91_98.77,92.70_78.39,37.86_53.00,45.73_47.73,55.77_49.53,71.10_49.51,81.43_47.77,89.30_53.34,63.33_58.91,63.37_75.00,55.86_77.11,63.28_78.93,71.03_77.02,42.79_59.32,55.16_59.16,71.82_59.15,84.28_59.37,50.60_88.24,60.51_86.19,63.48_87.05,66.41_86.13,75.97_88.40,69.45_89.50,63.07_89.96,56.74_89.30,63.46_88.87,63.15_87.77,48.67_56.75,48.67_61.26,78.35_56.68,78.21_61.29
7.756086826324463,75.94,0.00,94.77,2.03,3.51,2.14,-0.11,8.30,122.75,117.78,32.57_77.29,39.28_97.07,59.61_106.45,81.99_97.67,90.85_77.77,34.20_50.58,42.36_45.51,52.50_47.42,68.22_47.32,79.01_45.57,87.22_50.84,60.12_56.28,59.92_70.78,52.13_73.55,59.93_75.53,68.10_73.69,39.12_57.32,51.59_57.14,69.32_57.04,82.06_57.44,46.56_85.12,56.50_82.26,60.08_83.09,63.66_82.14,73.15_84.98,67.22_86.99,59.64_88.03,52.30_86.98,59.96_85.38,59.73_85.43,45.02_54.75,44.89_58.92,76.23_54.68,75.87_58.87
7.953739881515503,99.30,0.00,99.92,1.29,3.66,1.42,-0.96,3.18,116.28,116.78,29.28_72.41,35.65_90.85,55.80_100.50,78.38_90.81,86.14_72.36,31.55_44.65,39.35_39.69,48.91_41.61,63.93_41.56,73.81_39.63,81.77_44.75,56.05_50.26,55.71_66.28,48.13_68.32,55.84_70.10,64.02_68.11,35.29_51.60,48.07_51.22,64.98_51.08,77.92_51.51,43.45_79.38,52.77_77.33,56.23_78.24,59.59_77.13,69.26_79.01,62.56_80.11,55.99_80.73,49.56_80.34,56.22_80.28,56.02_78.53,41.25_48.94,41.26_53.06,71.91_48.81,71.70_53.00
8.154757022857666,96.69,0.00,99.87,-6.41,1.48,1.75,4.96,6.73,108.82,118.26,31.04_73.23,37.99_94.17,58.65_105.28,79.87_94.52,87.79_73.26,35.38_47.97,43.12_44.31,51.94_47.59,65.56_47.54,74.65_44.30,82.38_48.02,58.70_55.96,58.75_70.85,51.09_72.74,58.74_74.96,66.49_72.77,39.11_55.58,51.24_55.70,66.65_55.68,78.67_55.49,45.66_83.38,55.33_81.82,58.92_82.75,62.47_81.69,71.45_83.23,65.66_86.17,58.51_87.49,51.37_86.20,58.85_84.94,58.59_84.85,44.95_53.06,44.78_57.51,73.16_52.98,73.00_57.36
8.354957103729248,62.38,0.05,49.93,-4.79,0.32,1.84,15.27,23.31,99.14,102.12,37.92_82.11,46.87_99.69,64.43_108.41,81.81_99.78,91.20_82.91,42.99_58.87,49.89_56.92,57.85_57.71,71.30_57.93,79.07_57.14,85.81_58.92,64.65_65.12,64.58_78.36,56.71_79.09,64.50_81.60,72.20_79.20,46.99_64.82,57.14_64.92,72.00_64.86,82.03_64.98,51.61_90.98,60.95_88.32,64.61_89.23,68.30_88.30,77.16_90.92,72.08_95.40,64.43_97.05,56.74_95.32,64.58_91.28,64.46_93.58,52.20_63.66,51.93_66.32,77.01_63.74,77.09_66.36
8.557231903076172,13.44,0.05,0.02,-5.17,1.90,1.26,17.58,19.90,103.24,109.60,42.35_81.90,48.67_100.71,69.07_111.23,89.69_100.73,96.23_81.84,46.44_59.04,53.47_55.02,61.57_56.90,75.12_56.85,83.47_54.88,91.03_59.32,68.69_65.92,68.35_78.46,60.11_79.86,68.59_82.89,77.34_79.88,50.35_64.73,61.44_64.96,75.92_65.02,87.37_64.85,54.94_91.28,64.79_89.44,68.74_90.60,72.74_89.49,83.03_91.33,77.24_94.12,68.80_95.31,60.56_93.81,68.77_92.61,68.81_92.98,55.65_62.64,55.64_66.40,82.02_62.72,81.96_66.47
8.757304906845093,99.61,0.00,99.93,-0.87,0.89,2.11,1.93,6.01,117.00,125.16,32.59_80.10,40.71_99.73,58.79_110.32,78.03_100.07,86.60_80.52,34.63_52.50,41.99_47.31,51.04_49.74,68.51_49.73,77.58_47.46,85.17_51.72,59.77_59.09,59.63_73.92,51.17_76.00,59.63_77.98,68.25_76.09,37.86_60.04,50.29_59.75,68.93_59.80,81.43_59.99,45.79_88.18,56.10_84.33,59.47_85.27,62.92_84.16,72.53_88.24,66.93_94.16,58.96_96.73,51.05_94.17,59.42_87.96,59.17_92.51,43.77_58.38,43.57_61.19,75.62_58.28,75.45_60.97
8.95871090888977,75.79,0.00,94.63,2.05,0.17,1.86,-2.43,4.10,114.31,117.39,28.27_72.12,35.68_92.19,53.78_101.92,71.81_92.28,79.77_72.43,29.53_47.28,36.73_42.26,45.62_43.90,63.29_44.04,72.31_42.57,78.91_47.39,54.28_53.67,54.18_65.34,45.69_67.83,53.94_69.79,62.41_67.84,33.54_54.08,45.19_53.60,63.18_53.52,75.06_54.00,41.79_80.76,50.90_75.71,54.29_76.64,57.69_75.64,66.29_80.76,61.73_85.21,54.18_87.26,46.69_85.34,54.17_79.27,54.25_84.00,39.27_51.84,39.13_55.32,69.52_51.60,69.30_55.05
9.159721851348877,89.98,0.00,99.57,-0.05,1.00,1.66,5.40,8.41,104.00,113.31,30.43_73.59,37.67_92.73,56.92_102.83,75.46_92.98,83.03_74.06,34.47_50.06,41.48_45.48,49.69_47.31,64.08_47.24,72.55_45.19,79.39_49.84,56.79_55.99,56.61_67.91,48.70_70.24,56.60_72.48,64.49_70.24,38.16_56.22,49.02_56.26,64.75_56.14,75.51_55.97,44.33_82.07,53.13_78.14,56.51_78.76,59.96_78.07,68.52_81.89,64.28_86.51,56.62_88.47,48.98_86.67,56.46_81.51,56.63_85.01,43.41_54.33,43.18_57.24,70.48_54.04,70.44_56.97
9.360331058502197,91.22,0.00,99.66,-1.11,0.93,0.21,1.71,5.80,107.72,107.32,29.67_68.03,37.52_86.76,56.52_95.24,74.64_85.87,82.00_66.92,31.82_44.49,38.99_40.14,47.60_41.63,62.71_41.91,71.46_40.01,78.35_44.57,55.50_50.38,55.94_62.89,48.09_65.09,55.65_67.39,63.47_65.55,36.58_50.98,47.16_50.79,63.47_50.59,73.91_50.80,43.82_76.10,52.64_73.04,55.58_73.73,58.54_72.94,66.58_75.92,61.99_78.44,55.38_79.49,48.79_78.35,55.68_76.26,55.47_76.78,41.78_48.95,41.57_52.01,68.92_48.63,68.81_51.69
9.561760902404785,26.51,0.00,0.23,-3.77,0.19,0.89,3.94,5.68,105.56,107.04,29.29_67.77,37.94_86.47,55.95_94.88,74.53_85.82,83.10_66.40,33.45_43.19,40.74_40.34,48.95_41.40,63.97_41.22,72.39_39.73,79.05_42.56,56.62_49.80,56.63_64.12,48.58_65.62,56.48_67.10,64.57_65.77,37.68_50.56,48.75_50.09,64.43_49.58,75.60_49.59,44.56_75.92,53.49_73.63,56.47_74.50,59.49_73.45,67.13_75.74,61.39_77.83,55.67_78.95,50.01_77.97,56.47_76.69,55.70_76.45,43.06_49.43,43.13_51.93,69.83_48.33,69.93_51.07
9.76311993598938,5.44,0.30,0.00,-5.86,0.79,1.70,6.46,13.24,118.66,105.11,38.88_73.82,47.56_91.97,63.72_100.84,80.04_92.87,90.47_74.68,39.63_54.03,47.44_49.16,56.90_50.50,72.81_49.94,83.18_48.27,90.88_52.87,64.67_58.80,64.51_71.39,57.69_74.15,64.35_75.30,71.28_74.30,45.46_60.95,56.39_60.16,73.48_59.08,85.19_59.34,53.41_85.29,61.61_81.08,64.39_81.61,67.21_80.88,75.35_85.03,70.63_88.84,64.26_90.62,57.91_89.31,64.28_83.73,64.30_87.62,50.97_60.27,50.85_61.98,79.39_58.63,79.26_60.30
9.96364688873291,63.43,0.00,64.84,-8.71,1.27,1.11,8.44,8.34,98.83,105.25,31.01_66.41,39.51_85.79,57.65_96.05,76.20_85.91,84.83_65.25,36.07_43.96,42.80_42.14,50.01_43.23,64.44_43.17,71.98_41.88,78.76_44.00,57.50_50.82,57.66_65.25,50.14_65.85,57.65_68.34,65.40_66.16,40.21_50.64,50.17_50.61,65.13_50.35,75.20_50.24,45.34_76.00,54.28_74.73,57.48_75.77,60.92_74.69,69.24_76.06,63.88_79.15,57.14_80.58,50.72_79.07,57.53_77.90,57.20_78.04,45.10_49.90,45.02_52.00,70.12_49.36,70.17_51.59
10.160933017730713,40.38,0.00,2.74,-5.68,1.03,1.15,12.22,11.65,93.39,104.35,33.53_71.08,40.60_88.63,59.17_98.61,77.65_88.33,84.52_70.18,38.32_46.96,44.68_44.78,51.77_45.49,65.30_45.64,72.34_45.03,78.66_47.45,58.80_54.80,58.80_67.53,51.24_68.53,58.82_70.90,66.67_68.74,41.65_53.66,51.90_53.85,65.50_53.87,75.80_53.90,47.10_79.51,55.52_78.02,58.75_79.04,62.08_78.02,70.13_79.53,64.90_81.80,58.64_82.85,52.40_81.76,58.82_81.29,58.75_80.40,46.67_51.99,46.58_55.52,70.78_52.12,70.70_55.59
10.365370988845825,0.11,5.34,0.00,-7.04,0.46,1.58,8.90,6.67,102.11,112.39,32.67_71.78,39.65_90.90,59.28_100.33,78.67_91.14,86.81_71.57,37.44_46.40,44.48_43.12,52.45_44.97,66.54_45.01,74.55_42.95,81.55_46.13,59.42_53.10,59.64_69.68,52.19_71.13,59.45_73.57,67.01_71.34,41.09_54.26,51.63_54.08,67.56_53.89,78.20_54.06,47.34_81.87,56.37_79.64,59.60_80.67,62.85_79.49,71.12_81.89,65.76_84.16,59.33_85.38,52.74_84.23,59.59_83.12,59.33_82.26,46.25_52.53,46.08_55.28,73.05_52.33,72.97_55.07
10.566433906555176,0.36,0.00,0.00,-5.73,1.00,2.03,5.49,6.81,105.20,114.30,30.28_74.44,36.78_92.57,56.99_102.07,77.71_92.67,85.01_74.00,34.89_47.92,42.09_43.66,50.73_46.04,64.59_46.12,73.23_43.78,80.33_47.83,57.44_54.22,57.46_71.38,50.00_72.80,57.40_75.04,64.84_72.97,38.87_54.97,50.16_54.90,65.03_54.76,76.32_54.85,44.95_83.47,53.95_81.49,57.26_82.36,60.49_81.34,69.30_83.34,63.74_85.43,57.04_86.71,50.30_85.57,57.28_84.64,57.07_83.38,44.40_52.76,44.28_56.64,70.90_52.65,70.81_56.44
10.766710758209229,2.16,0.04,0.00,-11.37,1.60,2.16,-1.06,3.43,112.96,112.00,27.00_67.67,34.23_87.97,54.15_96.76,74.83_88.21,83.62_67.57,30.52_44.37,38.53_40.43,47.88_43.12,61.52_43.13,71.02_40.12,79.31_43.90,54.67_51.17,54.56_67.48,47.62_69.71,54.60_72.02,61.60_69.91,35.79_51.41,47.13_51.90,62.73_51.67,74.03_50.98,42.67_80.67,51.11_78.40,54.46_79.36,57.76_78.33,65.86_80.53,60.88_82.52,54.08_83.70,47.34_82.60,54.47_81.53,54.12_80.50,41.27_49.05,41.02_53.52,68.49_48.72,68.68_53.12
10.968679904937744,0.20,0.02,0.00,-9.76,1.47,1.88,-2.27,1.26,113.37,115.96,26.38_68.15,33.74_88.39,53.52_97.89,73.90_88.76,82.16_68.36,29.42_43.01,37.35_39.19,46.54_42.04,60.85_42.08,70.29_39.03,78.39_42.99,53.66_50.46,53.62_67.42,46.65_69.30,53.53_71.62,60.58_69.44,33.86_50.74,46.14_51.02,61.69_50.82,73.96_50.47,41.58_80.60,50.62_78.00,53.70_78.85,56.70_77.88,65.38_80.49,59.95_82.71,53.52_83.63,47.04_82.75,53.71_81.08,53.53_80.58,39.68_48.32,39.55_52.99,68.09_48.07,68.11_52.77
11.169250011444092,0.19,0.15,0.00,-10.90,-1.53,1.38,5.89,6.52,100.43,113.14,29.78_71.90,35.94_90.63,55.55_100.81,74.38_90.93,80.80_72.06,33.96_47.38,41.37_43.44,49.82_46.67,61.82_46.75,70.32_43.44,77.34_47.64,55.87_54.04,56.25_71.21,49.85_73.58,56.09_75.61,62.18_73.72,37.96_54.27,49.36_54.77,62.17_54.68,73.33_54.25,44.39_83.68,53.10_81.53,56.10_82.53,59.03_81.46,66.81_83.58,61.79_85.87,55.72_87.11,49.55_85.88,56.07_84.80,55.70_83.67,43.42_51.66,43.27_56.33,68.11_51.54,68.12_56.27
11.37018895149231,0.12,0.05,0.00,-8.38,1.68,1.68,-0.23,2.52,110.58,116.35,27.72_71.02,34.58_89.88,54.20_99.48,74.35_89.91,82.70_70.58,30.68_44.86,38.32_40.45,47.54_43.61,61.40_43.63,70.61_40.42,78.45_44.70,54.36_51.44,54.31_68.95,47.66_71.27,54.32_73.27,61.14_71.26,35.01_52.12,47.09_52.46,61.95_52.31,73.76_51.94,42.33_81.40,51.38_79.32,54.46_80.15,57.45_79.23,65.96_81.24,60.57_83.92,54.11_85.21,47.50_83.91,54.47_82.37,54.12_81.54,40.77_49.64,40.59_54.14,68.19_49.47,68.19_53.93
11.570842981338501,0.08,0.35,0.00,-13.17,0.81,2.02,3.65,4.23,103.33,111.85,27.06_68.06,34.49_87.90,54.55_97.44,74.90_87.99,83.18_68.39,32.54_44.01,40.14_40.96,48.42_43.67,61.00_43.75,69.44_40.94,77.17_44.16,54.96_52.66,54.80_68.15,48.23_70.61,54.94_72.76,61.57_70.76,37.16_52.18,47.88_52.85,61.87_52.74,72.67_52.15,42.75_81.74,51.42_79.65,54.60_80.74,57.85_79.64,66.07_81.55,60.93_83.43,54.53_84.63,47.98_83.53,54.68_83.22,54.54_81.31,42.42_49.69,42.24_54.37,67.30_49.58,67.33_54.30
11.772089004516602,1.04,0.27,0.00,-16.54,0.72,2.28,3.65,6.00,104.19,107.45,29.09_67.39,34.49_86.23,54.78_95.54,75.60_86.24,82.65_67.52,32.77_44.13,40.79_41.49,49.07_44.70,61.69_45.00,69.99_41.74,77.78_44.27,55.37_52.91,55.29_68.92,48.83_70.98,55.40_73.02,62.06_71.01,37.17_51.83,48.53_52.69,62.19_52.66,73.50_51.97,43.30_81.64,52.14_80.03,55.31_81.06,58.39_79.92,66.32_81.20,61.17_82.91,54.81_84.01,48.28_83.12,55.31_83.32,54.94_80.81,42.71_49.42,42.45_54.31,68.02_49.48,68.00_54.38
11.973397970199585,0.08,0.12,0.00,-13.50,1.71,2.34,0.09,4.10,110.85,109.95,28.21_67.18,33.91_86.12,54.39_95.73,75.61_86.09,83.35_66.94,31.07_43.21,39.42_40.30,48.54_43.78,61.23_44.16,70.36_40.41,78.96_43.25,54.79_51.12,54.73_67.17,48.41_69.43,54.84_71.47,61.48_69.52,35.48_50.39,47.51_51.17,62.52_51.11,74.36_50.34,42.93_79.79,51.46_77.66,54.79_78.66,58.04_77.57,65.80_79.41,60.82_82.15,54.25_83.53,47.56_82.18,54.77_80.67,54.25_80.22,41.09_48.18,40.90_52.53,68.68_48.10,68.80_52.37
12.173896789550781,0.03,0.06,0.00,-11.22,0.77,1.68,-0.61,4.57,111.83,113.07,27.29_69.93,34.54_89.86,54.56_98.80,74.57_89.73,82.56_69.50,30.65_44.94,38.95_41.53,48.27_44.96,61.13_45.05,70.64_41.47,78.96_45.03,54.64_52.65,54.59_69.28,48.08_71.72,54.67_73.69,61.27_71.80,35.07_52.72,47.17_53.42,62.37_53.30,74.42_52.60,42.76_82.50,51.58_79.91,54.71_80.83,57.81_79.79,65.99_82.19,60.71_84.25,54.36_85.15,47.93_84.42,54.68_83.08,54.41_82.01,40.79_50.53,40.60_55.06,68.72_50.36,68.78_54.92
12.375200986862183,0.15,0.07,0.00,-12.26,0.68,2.15,-2.02,4.20,112.50,112.55,25.73_69.01,32.52_88.81,53.14_98.00,74.05_88.75,82.28_68.74,29.42_44.48,37.89_41.14,47.25_44.61,60.32_44.91,69.71_41.28,78.02_44.49,53.70_52.32,53.64_68.68,47.14_71.13,53.63_73.36,60.26_71.24,34.11_52.04,46.19_52.90,61.54_52.80,73.35_51.98,41.41_81.61,50.29_79.36,53.63_80.32,56.90_79.25,64.96_81.26,59.89_83.78,53.06_85.10,46.16_83.94,53.60_82.56,53.14_81.70,39.75_49.89,39.53_54.25,67.65_49.79,67.85_54.11
12.575922012329102,0.04,0.05,0.00,-12.99,2.58,1.98,-1.67,4.63,111.32,110.05,26.35_67.83,32.24_86.95,53.01_96.34,74.96_86.94,83.00_67.48,29.45_43.82,37.54_40.87,46.21_43.56,60.36_43.66,69.25_40.63,77.53_43.50,53.34_52.11,53.15_67.40,46.16_69.66,53.26_72.04,60.63_69.75,33.68_51.69,45.64_52.18,61.45_51.91,73.37_51.29,41.05_81.04,49.66_78.85,53.11_79.89,56.53_78.77,65.08_80.65,59.69_82.35,52.85_83.35,46.11_82.46,53.13_82.42,52.96_80.18,39.36_49.38,39.13_53.83,67.50_49.06,67.59_53.45
12.776524066925049,0.01,0.03,0.00,-8.43,4.66,2.19,-2.42,1.84,112.03,119.68,27.32_72.34,33.73_91.24,52.80_101.58,73.78_91.63,82.46_72.71,28.90_45.56,36.32_40.97,45.55_44.36,59.67_44.43,69.16_41.13,77.29_45.78,52.46_52.80,52.16_70.42,45.96_73.06,52.39_74.85,59.28_72.99,32.72_53.62,45.23_54.16,60.55_54.11,73.01_53.55,40.32_82.92,49.46_80.99,52.64_81.81,55.77_80.87,64.77_82.78,59.04_85.89,52.35_87.38,45.68_85.93,52.64_84.17,52.27_83.59,38.44_51.17,38.41_55.77,67.22_51.10,67.23_55.73
12.977657794952393,0.00,0.03,0.00,-13.78,0.52,2.62,-5.52,12.29,119.00,109.22,24.36_74.63,30.77_93.88,52.53_103.31,74.57_94.73,82.22_75.53,27.75_51.68,37.19_48.22,47.36_51.69,59.22_51.64,69.67_48.20,79.15_51.69,53.31_59.40,52.99_75.17,45.68_78.02,53.05_80.25,60.48_78.18,32.34_58.95,45.03_59.97,61.91_59.89,74.38_58.98,40.03_88.29,49.27_86.40,52.86_87.47,56.50_86.38,65.71_88.16,60.47_90.02,52.90_91.01,45.41_90.06,52.83_90.00,52.93_87.59,38.47_56.31,38.12_61.40,68.45_56.28,68.56_61.35
13.178867816925049,0.00,0.02,0.00,-11.87,-1.64,1.20,0.41,17.24,108.68,107.05,28.13_77.87,35.53_96.94,54.35_106.45,72.74_96.94,78.95_78.13,30.79_55.82,39.42_52.39,48.59_54.47,60.31_54.51,69.55_52.59,77.73_55.93,54.60_60.17,54.78_77.34,48.45_80.30,54.73_82.20,60.75_80.26,35.31_60.33,47.11_61.27,62.00_61.23,73.26_60.36,42.84_90.07,51.58_88.15,54.65_89.17,57.74_88.11,65.66_89.96,60.86_92.77,54.50_94.26,47.99_92.80,54.61_91.58,54.54_90.48,40.88_57.87,40.70_62.45,68.06_57.91,68.16_62.40
13.379837036132812,0.00,0.07,0.00,-10.33,-0.64,1.02,1.64,16.02,108.23,112.91,29.68_79.80,37.04_99.20,55.63_110.11,74.04_99.36,80.34_79.94,31.89_57.07,40.57_52.95,50.22_55.45,60.51_55.36,70.26_52.95,78.64_57.10,55.50_61.55,55.72_78.41,49.65_81.89,55.81_83.58,61.58_81.81,36.51_61.75,48.31_62.87,62.77_62.74,73.94_61.66,43.65_91.50,52.50_89.26,55.69_90.25,58.92_89.24,66.97_91.47,62.22_95.03,55.45_96.75,48.59_95.01,55.65_92.68,55.46_92.78,41.93_59.39,41.75_64.02,68.90_59.35,69.01_63.86
13.580259799957275,0.02,0.11,0.00,-14.18,-0.26,1.87,1.52,18.14,105.51,105.29,25.53_76.36,33.81_97.15,53.43_105.88,73.17_97.59,81.55_76.78,31.02_55.51,39.04_52.73,47.82_55.34,59.54_55.42,68.62_52.66,76.59_55.60,53.71_61.72,53.88_76.91,48.46_80.82,53.91_82.34,59.32_80.87,35.73_61.61,46.40_62.46,61.29_62.43,72.00_61.78,42.32_91.03,50.83_88.81,53.78_89.77,56.80_88.74,64.76_90.88,59.64_92.91,53.57_93.71,47.51_92.91,53.74_92.25,53.58_90.44,40.78_59.49,40.58_63.74,67.01_59.44,66.99_63.82
13.781426906585693,0.00,0.15,0.00,-14.57,-1.57,1.01,1.26,16.70,106.91,106.30,25.72_75.84,33.96_96.72,54.23_105.28,73.77_96.70,81.42_75.80,31.14_54.64,39.53_51.93,48.50_54.16,60.22_54.16,69.29_51.76,77.32_54.41,54.50_61.06,54.73_76.67,48.64_80.26,54.62_81.89,60.46_80.27,35.81_60.96,47.03_61.81,61.95_61.65,73.10_60.84,42.50_90.17,51.43_87.91,54.46_88.91,57.55_87.82,65.73_89.77,60.92_92.43,54.46_93.69,47.84_92.49,54.43_91.51,54.48_90.11,41.10_58.70,40.90_63.11,67.97_58.50,67.96_62.99
13.982420921325684,0.02,0.00,0.00,-11.45,-2.33,0.82,-1.56,15.62,109.19,110.33,25.46_76.99,33.33_96.79,52.73_107.56,71.39_96.74,78.15_76.66,28.96_55.41,37.67_51.51,47.38_53.61,58.57_53.66,68.08_51.58,76.12_55.44,52.87_60.34,53.44_76.21,47.45_79.72,53.22_81.17,58.73_79.71,33.86_60.33,45.59_61.03,60.15_60.91,71.47_60.25,40.99_89.18,50.24_87.21,53.22_88.09,56.27_87.18,64.47_89.14,59.45_92.48,52.92_93.84,46.32_92.47,53.14_90.30,52.99_90.45,39.24_58.07,39.14_62.33,66.54_57.94,66.51_62.25
14.183226108551025,0.09,0.01,0.00,-8.17,-2.43,1.44,-1.99,14.36,111.68,112.80,25.53_78.15,33.25_97.87,53.37_108.36,72.58_98.07,78.97_78.11,29.23_55.63,38.05_50.88,48.55_52.92,58.98_52.97,69.23_51.11,77.47_56.15,53.58_59.28,54.11_75.90,48.29_79.98,53.89_81.66,59.18_79.91,34.24_60.46,46.18_61.07,60.94_60.92,72.49_60.47,41.62_89.40,50.87_87.27,53.82_88.08,56.76_87.27,64.81_89.43,59.95_92.50,53.50_93.74,46.87_92.48,53.69_90.33,53.57_90.26,39.67_58.05,39.55_62.36,67.53_57.99,67.42_62.31
14.384275913238525,0.04,0.02,0.00,-14.11,-0.43,2.48,-0.80,17.05,109.76,105.44,24.40_75.43,32.34_95.67,53.11_104.92,73.59_96.38,81.70_76.16,29.89_54.42,38.39_51.55,47.74_53.79,59.40_53.96,69.01_51.68,77.30_54.67,53.55_61.20,53.56_75.99,47.42_79.71,53.49_81.30,59.43_79.83,34.68_60.85,46.13_61.69,61.12_61.71,72.56_61.06,41.16_89.61,50.12_87.96,53.25_88.99,56.47_87.99,65.09_89.60,59.82_91.56,53.25_92.48,46.73_91.34,53.19_91.61,53.24_89.22,40.10_58.61,39.92_63.14,67.27_58.68,67.18_63.31
14.585577011108398,0.01,0.02,0.00,-8.52,-2.75,1.28,-0.33,15.54,109.10,110.56,26.44_77.67,34.10_96.95,53.67_107.67,72.28_97.25,78.54_77.72,30.17_56.03,38.54_51.22,48.63_52.99,59.29_52.97,69.40_51.36,77.30_56.47,53.90_59.67,54.48_75.73,48.95_79.63,54.27_81.05,59.20_79.60,35.30_60.51,46.94_61.02,60.80_60.94,72.14_60.46,42.46_89.01,51.36_87.08,54.19_87.86,57.06_87.08,64.96_89.10,60.10_91.82,53.94_92.94,47.67_91.80,54.11_89.81,53.97_90.03,40.54_58.00,40.51_62.39,67.28_57.88,67.14_62.32
14.786799907684326,0.15,0.13,0.00,-7.35,-0.33,1.68,0.85,9.16,108.60,115.39,26.22_76.38,34.11_95.63,54.45_105.32,74.77_95.78,82.57_76.18,31.21_50.97,38.82_46.75,48.24_49.28,61.22_49.45,70.54_47.07,78.12_51.40,54.64_57.17,54.92_73.59,48.69_77.23,54.85_78.37,60.96_77.12,35.37_58.47,47.12_58.64,62.35_58.57,74.02_58.50,42.05_86.35,51.72_84.45,54.95_85.44,58.12_84.42,66.99_86.27,61.31_89.65,54.42_91.18,47.42_89.66,54.82_87.61,54.46_87.60,40.69_56.45,40.70_60.14,68.84_56.40,68.66_60.18
14.98728895187378,0.45,0.02,0.00,-7.09,-0.16,1.29,0.87,12.44,106.91,111.50,26.08_76.52,34.15_95.55,53.71_105.36,73.62_95.58,81.04_76.07,30.75_52.52,38.39_48.45,47.70_50.75,59.84_50.85,69.20_48.49,76.93_52.85,53.83_58.24,54.04_73.24,48.42_77.01,54.07_78.20,59.61_76.89,34.50_58.78,46.57_59.10,61.09_59.02,73.03_58.84,41.88_87.01,51.09_84.71,54.08_85.61,57.09_84.68,65.58_86.87,59.96_89.62,53.67_90.58,47.38_89.55,53.95_87.66,53.77_87.64,39.92_56.58,39.95_60.81,67.72_56.51,67.49_60.79
15.188376903533936,0.06,0.01,0.00,-10.80,0.69,1.16,2.14,7.40,106.14,110.71,27.76_71.01,34.95_89.85,54.50_99.66,74.49_89.64,81.86_70.33,31.81_47.04,39.38_43.65,47.99_47.03,61.04_46.96,69.80_43.31,77.66_46.94,54.59_54.68,54.69_69.17,48.69_72.27,54.83_73.42,60.93_72.08,35.50_54.28,47.47_54.86,61.89_54.62,73.98_54.02,42.36_82.79,51.72_80.71,54.73_81.74,57.74_80.55,66.62_82.47,60.52_84.74,54.32_85.52,48.19_84.73,54.67_83.91,54.41_82.68,41.05_52.09,40.95_56.58,68.35_51.78,68.39_56.34
15.387312889099121,0.03,0.00,0.00,-9.94,1.51,1.41,2.34,7.33,107.30,105.37,27.62_68.98,35.81_86.35,55.27_95.13,75.67_86.21,84.29_68.38,32.34_43.67,39.77_41.76,47.94_44.19,62.55_44.20,70.88_41.69,78.69_43.74,55.33_52.09,55.29_66.57,48.84_69.10,55.46_69.97,62.10_69.08,35.97_52.78,47.58_52.63,63.32_52.48,75.09_52.62,43.43_79.82,52.48_77.45,55.45_78.41,58.43_77.44,67.34_79.72,60.88_81.76,55.22_82.32,49.60_81.61,55.44_80.49,55.27_79.66,41.36_52.26,41.50_54.32,69.41_51.98,69.40_54.21
15.590274810791016,0.56,0.14,0.00,-10.40,0.83,1.98,-0.17,7.69,112.27,102.60,25.78_66.83,34.35_85.39,55.00_93.19,76.57_85.85,86.08_66.17,31.22_43.69,39.21_41.51,47.82_43.00,63.25_42.95,72.04_41.16,79.71_43.78,55.66_51.53,55.72_65.29,48.47_68.15,55.67_69.48,63.07_68.46,36.78_51.71,47.46_52.00,63.97_51.79,75.11_51.52,42.98_78.62,52.30_76.20,55.46_77.27,58.78_76.31,67.57_78.83,61.66_80.16,54.91_80.75,48.54_79.80,55.49_79.96,54.97_77.54,42.03_51.09,41.84_53.23,69.30_50.54,69.56_52.96
15.79108476638794,1.19,0.01,0.00,-7.87,1.56,1.20,1.94,7.15,110.73,106.16,27.75_68.53,36.93_87.47,56.61_95.62,77.04_87.50,86.75_67.60,32.89_45.18,40.27_42.31,49.09_43.59,64.06_43.54,73.12_41.61,80.72_44.89,56.68_51.95,56.78_65.90,49.88_68.73,56.81_70.11,63.87_68.90,38.34_52.82,48.62_52.86,64.75_52.51,75.86_52.39,44.39_79.62,53.43_76.90,56.63_77.90,59.98_76.90,68.66_79.52,62.74_81.41,56.22_82.15,50.01_81.32,56.62_80.54,56.23_78.98,43.37_52.01,43.27_54.23,70.07_51.29,70.23_53.71
15.991706848144531,0.53,0.16,0.00,-9.90,0.84,1.75,-1.47,5.20,114.79,107.45,25.53_67.12,34.30_86.20,55.23_94.73,76.39_86.80,85.60_67.37,30.62_42.83,38.67_40.51,47.54_42.65,63.07_42.49,72.25_40.19,80.20_42.85,55.25_51.16,55.40_65.87,47.80_68.65,55.36_70.06,62.91_68.77,35.59_51.65,47.03_51.62,63.88_51.37,75.65_51.37,42.38_78.77,51.91_76.51,55.25_77.57,58.74_76.53,68.03_78.84,62.01_80.53,55.10_81.50,48.38_80.39,55.20_80.23,55.05_78.15,41.26_50.95,41.12_53.10,69.82_50.44,69.90_52.78
16.192187786102295,10.88,0.00,0.01,-5.89,4.34,1.61,-0.20,5.60,113.61,107.60,27.41_68.50,36.24_86.97,55.55_95.27,77.24_86.88,87.65_67.94,31.56_43.96,38.74_41.01,47.50_42.28,63.63_42.41,72.73_40.42,80.64_43.43,55.76_51.56,55.27_64.97,48.43_67.38,55.53_68.92,63.08_67.60,36.73_51.89,47.63_51.97,64.10_51.60,75.84_51.43,42.56_78.29,52.11_75.83,55.40_76.83,58.91_75.82,68.51_78.29,62.04_80.41,54.99_81.26,48.40_80.27,55.40_79.53,55.08_78.00,42.09_50.87,41.97_53.60,69.76_50.11,69.87_53.02
16.393107891082764,0.20,0.01,0.00,-10.39,3.14,1.76,-0.17,5.99,113.23,106.43,26.81_67.46,34.97_86.19,55.29_94.68,76.71_86.45,86.51_66.67,31.48_43.11,39.24_41.32,47.53_43.89,63.15_43.77,72.06_40.68,80.39_42.69,55.29_51.58,54.91_65.72,48.24_68.73,55.04_69.73,62.35_68.83,36.14_52.03,47.35_51.90,63.90_51.46,75.78_51.24,43.21_78.89,52.01_76.27,55.23_77.26,58.49_76.18,67.59_78.56,61.56_80.65,54.90_81.69,48.45_80.70,55.23_79.70,54.79_78.44,41.52_51.49,41.48_53.29,69.77_50.66,69.93_52.63
16.594472885131836,1.67,0.01,0.00,-11.19,1.67,1.69,1.91,8.48,110.53,104.95,28.29_67.39,35.79_86.76,55.79_95.94,76.82_86.85,85.86_66.76,32.81_45.46,40.26_43.09,48.98_44.78,63.65_45.02,72.61_42.55,80.55_45.20,56.18_53.12,56.24_66.16,49.89_69.26,56.30_70.20,63.06_69.21,37.53_53.20,48.38_53.04,64.34_52.56,75.85_52.50,44.58_80.10,53.37_77.49,56.40_78.48,59.41_77.37,67.45_79.85,61.73_81.69,55.63_82.64,49.53_81.76,56.34_80.74,55.62_79.78,42.65_52.51,42.64_54.43,70.14_51.69,70.17_53.82
16.79542303085327,0.00,0.37,0.00,-6.18,3.25,1.85,-1.34,5.00,119.73,112.75,27.90_70.82,36.38_89.79,57.11_98.96,79.04_89.86,89.12_70.62,32.13_45.25,39.90_42.26,49.33_43.87,65.54_43.77,75.34_41.45,83.85_44.61,57.40_53.13,56.86_67.19,49.45_70.45,56.88_71.53,64.90_70.51,36.96_54.32,48.86_53.80,66.36_53.41,78.90_53.49,44.49_81.34,53.88_78.71,57.06_79.68,60.25_78.65,69.74_81.18,63.25_83.14,56.60_84.17,50.12_83.12,57.02_82.25,56.61_80.72,42.59_53.35,42.62_55.54,72.55_52.41,72.61_54.87
16.99654483795166,2.13,0.09,0.00,-7.10,2.47,2.90,2.73,7.67,111.76,108.45,28.22_69.37,37.64_89.35,56.83_98.04,77.35_89.66,88.29_69.32,33.97_45.79,41.38_42.95,50.31_44.32,65.24_44.46,74.61_42.62,82.25_46.06,57.60_53.10,57.23_67.16,50.60_69.92,57.20_71.48,64.28_70.12,39.60_53.70,49.70_53.85,65.63_53.61,76.61_53.58,44.92_80.59,53.97_78.09,57.14_79.02,60.41_78.07,69.20_80.70,63.22_82.70,56.47_83.46,50.20_82.51,57.10_81.79,56.58_80.06,44.58_53.05,44.40_55.08,70.94_52.54,71.02_54.80
17.197500944137573,0.11,0.16,0.00,-5.53,0.54,2.02,-0.04,1.21,108.78,111.78,24.49_66.16,33.01_84.36,53.19_94.36,73.56_84.62,82.31_65.89,30.36_40.88,37.73_37.38,46.64_38.52,60.66_38.68,69.74_37.30,77.35_40.99,53.55_47.30,53.58_62.32,46.50_65.33,53.55_66.38,60.67_65.36,34.71_48.88,45.94_47.98,61.61_47.82,73.03_48.66,41.08_75.78,50.54_73.46,53.48_74.38,56.36_73.49,65.45_75.66,59.42_78.41,53.15_79.52,46.83_78.36,53.40_76.46,53.25_76.59,40.19_48.10,40.25_49.99,67.30_47.71,67.15_49.81
17.39776086807251,0.10,0.57,0.00,-6.68,3.12,2.00,1.32,1.02,103.44,108.06,26.63_63.08,34.06_81.41,52.17_91.06,71.65_81.63,79.64_63.29,30.24_40.37,37.76_36.12,46.53_37.92,57.99_37.94,66.91_36.06,74.92_40.15,52.15_45.70,51.78_60.34,45.80_63.09,51.93_64.18,58.36_63.12,34.22_46.20,45.28_45.89,59.52_45.79,70.82_45.96,40.76_73.40,49.21_70.88,51.89_71.72,54.61_70.94,63.68_73.42,57.96_76.34,51.91_77.26,46.13_76.11,51.94_73.72,52.01_74.56,39.43_45.34,39.47_47.83,65.28_45.10,65.24_47.68
17.59843897819519,0.09,0.31,0.00,-7.33,-0.33,1.00,0.16,0.70,103.71,108.38,23.59_63.06,32.88_81.70,52.04_91.02,71.11_81.40,78.99_62.12,29.15_39.36,37.30_35.77,45.98_37.68,57.42_37.73,66.06_35.94,73.95_39.74,51.73_45.93,52.07_59.93,45.53_63.17,51.93_64.29,58.24_63.17,33.78_46.10,44.59_46.01,58.93_46.01,69.89_46.06,39.98_72.98,49.02_70.72,51.83_71.59,54.64_70.74,63.54_73.09,58.04_75.84,51.88_76.89,45.58_75.75,51.83_73.73,51.93_74.23,39.11_45.23,39.03_47.72,64.40_45.18,64.43_47.75
17.800395011901855,0.20,0.40,0.00,-7.81,4.38,2.31,1.36,3.31,104.10,107.38,25.93_64.30,34.13_83.50,52.36_92.79,72.48_83.43,81.73_64.31,30.46_41.78,38.06_38.31,46.65_39.68,58.44_39.72,67.24_38.09,75.42_41.40,52.39_48.12,51.68_62.20,45.92_65.01,51.96_66.28,58.56_65.09,34.96_48.07,45.58_48.06,59.80_47.92,70.94_47.87,40.52_75.13,49.06_72.71,51.90_73.60,54.78_72.72,64.25_75.05,58.40_77.82,51.94_78.92,45.75_77.67,51.95_75.67,52.07_76.34,40.14_47.22,39.98_49.63,65.27_46.86,65.26_49.47
18.001008987426758,0.59,0.36,0.00,-7.67,3.45,2.04,1.73,3.84,103.33,106.68,25.51_64.45,34.09_83.64,52.58_92.74,72.43_83.45,81.69_64.31,30.61_41.77,38.19_38.37,46.68_39.72,58.60_39.81,67.25_38.29,75.25_41.61,52.49_48.15,51.99_62.29,46.00_65.01,52.17_66.37,58.70_65.09,35.00_48.07,45.54_48.10,59.87_47.99,70.89_47.97,40.57_75.01,49.32_72.79,52.15_73.65,55.02_72.78,64.38_74.97,58.58_77.56,52.24_78.62,46.07_77.48,52.17_75.69,52.34_76.15,40.16_47.29,40.00_49.62,65.30_46.97,65.34_49.52
18.20224905014038,4.42,0.43,0.00,-5.81,0.23,1.29,0.81,3.25,105.58,107.84,24.52_65.67,34.08_84.33,53.36_93.12,72.92_83.78,81.59_65.07,30.32_42.19,38.36_38.07,47.29_39.67,59.38_39.69,68.17_38.24,75.93_42.41,53.31_48.06,53.41_62.34,46.76_65.48,53.37_66.68,59.95_65.46,35.28_48.29,46.07_48.40,60.53_48.42,71.54_48.42,40.98_74.99,50.33_72.81,53.22_73.65,56.09_72.82,65.27_74.96,59.72_77.62,53.34_78.82,46.76_77.57,53.21_75.76,53.45_76.09,40.72_47.34,40.51_49.81,65.88_47.33,65.99_49.90
18.403284072875977,2.20,1.71,0.00,-7.20,4.43,2.25,2.12,5.37,104.75,105.16,27.40_64.65,35.18_84.06,53.47_93.00,73.91_84.39,82.79_64.83,31.40_42.85,39.04_39.45,47.69_40.43,59.34_40.40,68.35_39.34,76.65_42.84,53.37_48.95,52.96_62.35,47.01_65.39,53.11_66.78,59.72_65.54,36.25_48.91,46.62_49.02,60.86_48.85,71.94_48.77,41.66_75.86,50.33_73.34,53.22_74.23,56.15_73.37,65.48_76.00,59.65_78.24,53.19_79.11,47.05_77.98,53.24_76.32,53.26_76.61,41.37_47.94,41.14_50.39,66.31_47.55,66.38_50.24
18.60107183456421,86.99,0.00,99.27,-4.13,0.20,1.12,3.03,3.20,104.13,109.31,25.83_66.03,35.55_85.33,54.84_94.29,74.20_84.86,83.02_65.26,32.14_42.93,39.85_38.15,48.79_39.60,60.60_39.67,69.44_38.17,77.12_43.07,54.63_47.58,54.87_62.16,48.61_65.56,54.78_66.93,60.89_65.55,37.34_48.67,47.38_48.27,62.02_48.20,72.30_48.65,42.57_74.85,51.78_73.02,54.70_73.76,57.56_73.04,66.60_74.89,61.21_77.43,54.78_78.64,48.15_77.39,54.67_75.73,54.86_76.14,42.38_47.55,42.22_49.55,67.09_47.43,67.12_49.53
18.808026790618896,17.11,0.07,0.04,-7.00,2.77,3.18,0.08,4.15,110.38,108.92,26.12_65.26,33.88_85.05,53.61_94.92,74.53_85.83,83.96_66.26,30.93_42.85,38.78_39.24,47.98_40.33,60.72_40.73,70.18_39.34,78.61_43.08,54.23_48.54,53.55_63.50,47.10_66.41,53.80_67.68,60.86_66.68,36.09_49.35,46.78_48.97,62.33_48.81,73.46_49.38,41.78_76.63,51.04_74.25,53.95_75.18,56.91_74.26,66.04_76.53,60.09_79.07,53.44_80.21,47.01_78.91,53.90_77.25,53.50_77.30,41.37_48.63,41.27_50.44,67.73_48.27,67.70_50.31
19.005767822265625,0.32,0.18,0.00,-6.93,2.61,1.30,3.24,5.46,108.66,112.33,29.69_68.91,37.08_88.93,56.96_99.07,77.81_88.75,86.25_67.98,33.62_45.76,40.83_41.83,50.04_43.07,63.29_43.32,72.66_41.64,80.55_45.71,56.70_51.83,56.78_65.63,50.55_68.98,56.86_70.04,63.43_68.85,37.93_52.72,48.50_52.28,64.97_52.07,75.91_52.57,45.22_80.50,53.94_77.72,56.98_78.66,59.99_77.62,68.31_80.46,62.60_82.94,56.27_83.87,50.13_82.64,56.91_80.78,56.43_81.20,42.86_51.53,42.90_53.61,70.69_51.31,70.49_53.41
19.206446886062622,0.11,0.25,0.00,-6.35,-0.60,1.42,1.64,7.30,114.46,113.53,29.78_72.64,38.53_92.00,58.26_101.91,77.95_92.07,86.12_72.37,33.64_48.13,41.34_43.86,51.09_45.74,65.81_45.76,75.55_43.85,83.08_48.35,58.45_54.43,58.77_69.63,52.17_72.58,58.58_73.85,64.95_72.58,38.32_55.74,50.20_55.39,66.71_55.33,78.69_55.80,46.67_83.39,55.76_81.06,58.65_81.87,61.51_81.02,69.89_83.28,64.25_85.55,58.36_86.51,52.36_85.52,58.56_84.05,58.36_83.77,43.73_54.06,43.78_57.19,73.24_53.96,72.99_57.19
19.407980918884277,0.00,0.09,0.00,-5.96,2.59,2.31,-0.61,5.89,117.90,113.14,29.54_71.81,36.85_91.16,57.11_100.17,78.20_91.50,87.14_72.11,32.35_46.71,40.37_42.66,49.91_44.77,65.07_44.84,74.97_42.46,83.28_46.71,57.37_53.76,57.08_68.82,49.94_71.42,57.08_73.25,64.51_71.67,37.01_54.28,49.14_54.32,65.96_54.21,78.36_54.17,44.49_82.20,53.94_79.91,57.09_80.87,60.30_79.86,69.64_82.00,63.76_84.31,56.89_85.32,50.13_84.20,57.00_83.27,56.87_82.26,42.61_52.26,42.48_55.82,72.47_52.04,72.45_55.61
19.609110832214355,0.46,0.25,0.00,-5.47,4.88,2.29,-1.49,5.28,117.92,112.36,29.27_70.49,36.46_89.69,56.31_98.92,78.19_90.15,87.59_70.38,31.48_45.56,39.06_41.99,48.38_43.17,64.14_43.32,74.06_41.60,82.41_45.55,56.15_52.42,55.75_67.45,48.29_69.56,55.99_71.54,64.14_69.92,36.16_53.08,47.64_53.02,65.37_52.78,77.45_53.17,43.51_80.91,52.59_78.01,55.88_79.07,59.36_78.10,68.80_81.00,62.85_83.19,55.75_84.15,48.99_82.90,55.85_81.72,55.79_80.77,41.70_52.01,41.40_54.41,71.58_51.69,71.48_54.26
19.80770778656006,0.01,0.00,0.00,-7.12,4.29,1.70,-0.55,4.72,114.63,111.53,28.64_69.68,35.49_88.99,55.94_97.67,77.77_88.62,86.66_69.21,31.49_44.87,39.23_41.42,48.37_43.46,63.11_43.54,72.67_40.89,81.00_44.54,55.70_51.56,55.35_66.91,48.60_69.44,55.54_70.99,62.88_69.67,35.85_52.16,47.60_52.13,64.12_51.93,76.29_51.83,43.24_80.20,52.12_77.71,55.35_78.67,58.63_77.63,67.91_79.74,62.18_82.36,55.29_83.39,48.53_82.26,55.39_80.94,55.27_80.29,41.30_50.41,41.15_53.53,70.44_50.03,70.41_53.16
20.012274980545044,0.43,0.05,0.00,-4.19,3.65,2.15,0.05,5.20,116.60,115.26,29.76_73.43,37.27_91.89,56.89_101.24,78.10_91.88,87.43_73.18,32.64_46.93,40.21_42.53,49.84_44.58,65.06_44.62,74.78_42.36,83.00_46.68,57.23_53.23,56.81_69.37,49.92_71.96,56.89_73.28,64.19_72.02,37.01_54.64,48.93_54.27,66.12_54.09,78.40_54.24,44.37_82.09,53.67_80.04,56.86_80.88,59.94_79.98,69.42_81.93,63.23_84.66,56.67_85.78,49.94_84.63,56.78_83.00,56.63_82.72,42.50_52.87,42.44_55.89,72.54_52.51,72.44_55.52
20.211447954177856,74.28,0.00,93.06,-0.63,2.23,1.45,2.25,5.48,113.30,115.26,30.51_73.14,38.29_92.46,58.45_101.53,79.32_92.41,88.49_73.05,33.92_46.87,41.47_42.12,50.94_44.03,65.74_44.12,75.28_42.13,82.86_47.06,58.46_52.76,58.54_67.99,51.39_70.55,58.44_72.57,65.69_70.82,39.08_53.64,50.11_53.74,66.89_53.63,77.91_53.75,44.58_79.80,55.03_78.49,58.46_79.20,61.99_78.48,71.70_79.72,65.79_82.76,58.03_84.30,50.34_82.64,58.42_81.40,58.15_81.51,44.24_52.00,44.15_54.65,72.67_51.77,72.55_54.60
20.412643909454346,18.92,0.00,0.06,-0.13,0.93,1.50,-1.75,2.84,118.02,115.05,27.45_72.07,36.47_90.44,56.44_98.71,77.18_90.31,86.18_71.95,31.24_44.40,39.12_39.37,48.87_41.28,64.58_41.30,74.45_39.45,82.21_44.48,56.73_49.39,56.77_66.49,49.57_69.17,56.71_70.49,63.96_69.16,36.12_51.35,48.12_51.04,65.38_51.07,77.42_51.41,41.90_77.24,53.34_77.27,56.73_77.95,60.03_77.18,71.13_77.02,63.95_79.99,56.52_81.36,49.07_80.14,56.68_79.44,56.58_79.48,41.80_49.61,41.84_52.70,71.77_49.57,71.55_52.70
20.61291790008545,28.44,0.00,0.32,-0.52,4.88,1.45,1.21,3.21,112.03,113.87,29.87_70.90,37.00_89.12,56.19_98.10,77.87_89.15,87.23_71.03,32.53_43.93,39.63_39.46,48.78_41.20,63.85_41.02,73.28_39.30,80.92_43.72,56.31_49.59,55.88_65.46,49.20_68.09,56.14_69.54,63.44_68.08,36.79_50.94,48.41_50.59,64.75_50.53,76.59_50.92,42.25_76.55,52.95_76.28,56.16_77.02,59.37_76.22,70.04_76.18,63.17_79.20,55.90_80.68,48.70_79.14,56.14_78.71,56.01_78.62,42.10_49.03,42.11_52.28,71.11_48.88,70.75_52.18
20.81429386138916,8.59,0.00,0.01,-2.28,3.11,1.66,-0.64,4.17,115.39,112.92,28.77_70.35,35.55_89.37,55.84_98.27,77.97_89.25,86.59_70.19,31.61_44.09,39.09_39.95,48.40_41.79,64.26_41.65,73.79_39.84,81.46_43.91,56.31_50.37,56.13_65.93,48.90_68.21,56.20_69.83,63.64_68.16,36.01_51.34,47.86_51.06,65.09_50.99,77.11_51.13,41.38_77.23,52.66_76.98,56.19_77.68,59.70_76.83,70.45_76.88,63.36_79.21,55.71_80.57,48.14_79.33,56.17_79.45,55.80_78.68,41.53_49.54,41.49_52.65,71.53_49.28,71.28_52.45
21.015934944152832,67.72,0.00,80.26,-3.64,4.36,1.46,2.44,4.00,109.83,112.96,30.81_69.81,37.70_88.81,57.02_98.14,78.29_88.68,86.26_69.59,33.15_44.02,40.37_39.98,49.26_42.14,63.86_41.92,73.15_39.85,80.59_44.31,56.54_50.45,56.38_65.83,49.97_68.39,56.60_69.87,63.42_68.35,37.30_51.22,48.85_51.02,64.54_51.09,76.38_51.33,42.48_77.08,53.20_76.85,56.51_77.64,59.87_76.78,70.65_77.08,63.66_79.76,56.28_81.03,49.02_79.57,56.50_79.24,56.42_79.14,42.68_49.36,42.68_52.57,70.97_49.37,70.62_52.64
21.216193914413452,64.14,0.00,67.98,-3.32,5.74,1.78,-0.01,4.52,114.77,113.14,30.25_69.75,36.62_89.09,56.45_98.81,78.99_89.00,87.73_69.67,32.07_44.25,39.52_40.33,48.52_42.35,64.06_42.30,73.71_40.19,81.65_44.29,56.23_50.80,55.78_66.30,48.58_68.11,56.06_70.19,63.98_68.19,36.29_51.29,48.05_51.14,65.07_51.14,77.17_51.23,41.62_76.96,52.35_76.63,56.05_77.41,59.84_76.52,70.84_76.80,63.83_79.43,55.72_80.86,47.95_79.23,56.01_79.11,55.90_78.84,41.74_49.45,41.64_52.64,71.57_49.32,71.27_52.48
21.41708993911743,56.85,0.00,36.06,0.35,2.09,1.37,-0.20,3.88,114.16,113.99,29.40_72.03,36.55_89.63,56.08_98.87,76.96_89.51,84.89_71.91,31.71_44.81,39.12_39.88,48.67_41.31,63.97_41.28,73.63_39.98,81.02_44.98,56.16_49.55,56.26_66.67,48.82_68.66,56.24_70.09,63.79_68.54,36.07_51.80,48.13_51.15,64.70_51.12,76.76_51.79,42.19_77.34,53.04_76.73,56.49_77.51,59.88_76.62,70.06_77.11,63.09_79.71,56.00_81.00,48.92_79.81,56.47_79.16,56.06_79.09,41.76_49.78,41.83_52.91,71.20_49.69,70.93_52.89
21.61842107772827,91.44,0.00,99.67,-1.32,1.98,1.57,0.28,5.46,115.39,112.47,30.28_72.12,37.12_89.57,56.95_99.18,78.33_89.50,85.66_71.68,32.54_45.21,40.34_40.89,50.02_42.66,64.57_42.63,74.38_40.96,82.38_45.44,57.19_50.74,57.32_67.26,50.02_69.29,57.34_70.64,64.73_69.17,36.69_52.68,48.98_51.96,65.83_51.89,78.18_52.64,43.25_78.40,54.04_77.52,57.38_78.35,60.66_77.41,70.75_78.11,63.62_80.28,56.82_81.26,50.02_80.27,57.32_79.73,56.88_79.41,42.44_50.91,42.46_53.88,72.54_50.82,72.22_53.86
21.820167064666748,56.22,0.00,33.43,-2.98,2.53,0.97,1.49,3.84,111.02,112.89,30.29_70.11,36.45_87.84,56.69_97.92,78.17_87.48,84.72_69.11,32.53_43.55,40.13_39.38,49.38_41.47,63.42_41.41,72.78_39.27,80.48_43.57,56.41_49.94,56.51_65.52,49.31_67.75,56.63_69.30,63.94_67.73,36.74_51.01,48.54_50.61,64.56_50.47,76.22_50.88,42.37_76.80,53.00_76.29,56.50_77.05,59.94_76.15,69.98_76.46,63.17_78.41,56.20_79.46,49.05_78.52,56.48_78.65,56.27_77.51,42.29_49.11,42.22_52.30,70.97_48.94,70.62_52.16
22.020242929458618,76.97,0.00,95.63,-0.81,3.76,1.10,-0.39,7.95,117.78,112.35,29.62_73.99,37.37_92.69,57.61_101.57,80.04_92.35,89.28_73.65,32.54_47.34,40.28_43.38,49.80_45.26,65.24_45.12,75.16_43.17,83.41_47.41,57.65_53.57,57.44_69.03,50.23_71.30,57.64_73.00,65.36_71.18,37.27_55.00,49.26_54.45,66.50_54.39,78.74_54.91,43.99_80.74,54.38_79.68,57.74_80.51,61.03_79.55,71.29_80.34,64.35_82.02,57.39_83.08,50.41_82.13,57.73_82.13,57.47_81.01,42.83_52.90,42.84_56.12,72.98_52.71,72.75_56.04
22.22144603729248,99.78,0.00,99.93,-1.62,5.40,-0.51,2.34,7.91,110.51,110.31,30.09_70.45,39.27_91.04,57.52_99.83,78.11_89.88,88.50_68.94,33.23_46.98,40.27_43.71,49.16_44.35,64.07_44.31,73.07_42.82,80.97_45.65,56.72_52.31,56.68_67.07,49.85_68.82,56.77_70.83,64.01_68.87,38.73_53.94,48.98_53.72,65.23_53.08,75.65_52.66,42.21_76.91,52.83_75.11,56.79_75.76,60.73_74.99,71.45_76.51,65.39_80.68,56.66_82.80,47.97_81.00,56.82_78.32,56.69_79.84,43.69_52.73,43.70_55.13,70.35_51.63,70.42_54.04
22.42209792137146,100.00,0.00,99.93,5.06,5.14,0.74,1.52,8.35,115.34,117.87,30.13_76.86,39.26_98.13,58.41_106.57,80.04_97.62,90.54_76.67,33.76_50.48,40.87_45.87,50.16_46.82,66.45_46.79,76.05_45.57,83.58_50.36,57.98_55.75,57.77_70.64,50.24_72.97,57.88_74.84,65.92_73.08,39.06_57.71,50.01_57.55,67.09_57.41,78.61_57.34,43.19_82.29,53.76_79.05,58.00_79.84,62.19_79.00,72.88_82.21,66.95_86.05,57.99_88.08,48.93_86.09,58.03_82.88,58.02_84.75,44.33_55.90,44.32_58.91,72.91_55.51,72.80_58.58
22.62309694290161,100.00,0.00,99.93,6.59,1.74,0.06,-0.36,5.48,108.63,113.66,24.34_71.64,33.72_92.03,53.50_100.19,73.70_90.99,83.25_70.67,30.01_46.24,37.01_41.95,45.88_42.38,61.32_42.04,69.85_40.88,76.93_44.94,53.28_51.03,53.46_64.68,45.14_66.00,53.29_68.02,61.68_65.99,34.67_52.51,45.62_51.74,61.43_51.28,72.49_51.35,38.45_75.89,49.48_73.12,53.35_74.01,57.20_72.98,67.51_75.49,61.35_79.04,53.20_80.70,44.82_79.26,53.40_76.42,53.20_78.31,40.03_50.87,40.16_53.36,67.11_49.83,66.92_52.56
22.82415199279785,96.42,0.00,99.87,16.07,2.09,-0.31,-2.71,14.56,111.44,100.78,23.85_74.23,33.68_91.32,52.53_98.55,72.60_90.39,82.18_73.42,28.44_50.42,35.27_46.49,44.40_45.89,60.56_45.57,69.52_46.01,76.58_49.65,52.50_54.70,52.76_63.43,45.20_66.07,52.64_67.12,60.43_66.06,33.08_56.29,44.46_55.41,60.89_54.93,72.22_55.23,37.79_75.25,48.62_71.72,52.39_72.60,56.23_71.56,67.06_74.78,60.64_78.24,52.15_79.93,43.82_78.60,52.47_75.40,52.20_77.42,38.68_55.12,38.88_56.65,66.52_54.26,66.35_55.78
23.024696826934814,99.99,0.00,99.93,2.86,3.73,1.14,1.14,6.17,104.83,114.21,25.10_70.81,32.96_91.85,52.62_101.34,73.94_91.10,82.96_70.44,30.44_46.55,37.35_42.08,46.07_43.50,59.47_43.60,68.32_41.80,75.72_46.56,52.58_51.20,52.32_65.51,44.77_67.11,52.59_69.20,60.49_67.08,34.80_52.34,45.09_52.14,60.55_52.08,71.45_52.18,37.77_76.59,48.56_74.83,52.55_75.70,56.52_74.75,67.02_76.22,60.49_80.10,52.31_81.93,44.03_80.33,52.65_77.67,52.47_79.84,39.75_50.79,39.77_53.45,66.24_50.55,66.03_53.36
23.226212978363037,99.99,0.00,99.92,1.98,1.26,1.22,0.97,6.51,104.07,114.29,25.14_70.59,32.69_91.97,52.41_101.75,72.99_91.27,80.87_70.25,30.06_47.31,37.09_42.22,46.06_44.13,59.22_44.24,68.12_42.25,75.01_47.36,52.65_51.76,52.74_65.65,45.18_67.42,52.73_69.37,60.31_67.43,34.63_52.55,45.12_52.47,60.25_52.41,71.01_52.48,37.87_76.93,48.74_75.28,52.73_76.17,56.66_75.22,66.82_76.69,60.58_80.58,52.38_82.53,44.09_80.82,52.83_77.93,52.50_80.65,39.67_50.87,39.75_53.76,65.94_50.72,65.70_53.72
23.42710781097412,100.00,0.00,99.92,5.41,3.69,1.02,1.15,7.35,106.56,113.54,25.09_71.98,34.61_93.25,53.96_101.97,74.86_92.54,84.98_71.67,30.94_46.94,37.91_42.79,46.84_43.96,60.84_44.20,69.73_43.07,76.96_47.25,53.53_51.61,53.34_66.04,45.93_67.73,53.50_69.78,61.27_67.82,35.61_53.16,46.02_52.98,61.61_53.08,72.20_53.29,38.66_76.65,49.66_74.34,53.57_75.10,57.46_74.29,68.41_76.50,62.15_80.77,53.57_82.72,44.89_80.88,53.67_77.46,53.55_80.03,40.73_51.91,40.73_54.25,67.00_52.02,66.83_54.35
23.627891063690186,100.00,0.00,99.93,4.00,1.69,1.52,-0.68,5.27,108.96,114.21,25.16_70.66,32.45_90.85,52.75_100.45,74.32_90.45,82.81_70.86,29.78_45.85,37.02_41.11,46.12_42.17,60.84_41.99,69.88_40.88,76.85_45.90,53.31_50.45,53.40_64.93,44.88_66.34,53.25_68.59,61.63_66.46,34.59_51.74,45.45_51.49,61.41_51.42,72.62_51.61,37.86_76.00,49.27_74.25,53.41_75.16,57.57_74.21,68.03_75.86,61.55_79.33,53.04_80.97,44.37_79.41,53.44_77.44,53.16_78.56,39.90_50.05,39.96_52.81,67.28_49.82,67.00_52.70
23.828773975372314,100.00,0.00,99.93,0.21,0.77,1.01,1.17,5.42,105.61,114.04,25.30_70.21,32.06_90.31,53.42_100.45,75.71_89.49,82.71_69.74,30.69_45.67,38.20_40.97,47.07_43.45,60.27_43.39,69.04_41.02,76.31_45.76,53.76_50.54,53.96_64.98,46.08_67.19,53.88_68.99,61.52_67.10,34.85_51.60,46.00_51.33,61.35_51.24,72.48_51.46,38.61_76.21,50.03_75.68,53.89_76.55,57.75_75.61,68.33_76.05,61.71_79.25,53.57_80.99,45.27_79.34,53.91_78.15,53.70_79.05,40.18_49.55,40.22_52.61,67.36_49.35,67.18_52.54
24.03001880645752,99.99,0.00,99.93,0.90,0.75,1.28,0.53,6.39,106.12,114.43,25.74_71.04,32.61_91.94,53.13_101.75,74.43_91.24,81.81_70.69,30.20_47.18,37.78_42.05,46.91_44.56,59.92_44.55,68.95_42.13,76.03_47.38,53.46_51.72,53.76_65.89,46.32_68.28,53.65_70.11,60.87_68.24,34.89_52.63,45.77_52.40,61.10_52.37,72.07_52.67,38.67_77.55,49.81_76.53,53.61_77.35,57.37_76.50,67.42_77.37,61.05_80.48,53.18_82.16,45.12_80.56,53.65_79.01,53.31_80.35,40.15_50.69,40.18_53.77,67.03_50.63,66.70_53.80
24.23083782196045,99.99,0.00,99.93,0.28,0.81,1.17,0.67,5.94,106.40,113.05,25.61_70.24,32.04_90.39,53.33_100.15,75.81_89.56,82.63_69.74,30.41_45.47,38.16_41.10,47.13_43.73,60.26_43.63,69.13_41.23,76.37_45.70,53.80_51.06,54.09_64.77,46.21_67.26,53.94_68.84,61.46_67.17,34.60_51.52,45.90_51.32,61.43_51.34,72.87_51.53,38.79_76.73,50.11_75.71,53.94_76.57,57.74_75.66,67.91_76.45,61.28_79.19,53.44_80.57,45.43_79.28,53.98_78.29,53.61_78.79,40.04_49.59,40.01_52.80,67.58_49.52,67.39_52.85
24.430428981781006
24.63516092300415,0.58,0.10,0.00,-2.41,0.54,1.15,1.77,5.05,106.20,115.40,26.05_71.39,33.55_91.21,54.49_101.21,75.87_90.62,83.08_70.85,31.46_45.42,38.79_41.67,47.56_43.98,61.60_43.87,70.36_41.68,77.33_45.69,54.57_52.27,54.64_65.92,48.08_69.56,54.54_70.68,61.01_69.45,35.41_53.51,46.83_52.82,62.26_52.77,73.76_53.49,41.75_80.33,51.30_77.63,54.62_78.66,57.94_77.55,67.23_80.16,61.18_82.76,54.53_83.74,47.79_82.69,54.61_80.94,54.59_80.96,40.72_51.90,40.78_54.52,68.53_51.81,68.27_54.49
24.83357000350952,1.06,0.40,0.00,-4.97,1.90,2.13,0.09,4.74,109.30,116.04,26.09_71.85,33.12_91.78,53.42_101.44,74.42_91.80,82.57_71.94,30.65_46.65,38.23_42.74,47.31_45.57,60.45_45.49,69.82_42.50,77.86_46.49,53.92_53.45,53.69_67.52,47.58_71.30,53.63_72.53,60.03_71.38,34.92_54.40,46.35_54.07,61.43_53.95,73.11_54.13,41.63_82.40,50.17_78.92,53.58_79.89,56.96_78.87,65.49_82.30,60.23_85.67,53.18_87.04,46.25_85.45,53.45_82.44,53.24_83.42,40.16_52.46,40.13_55.51,67.84_52.23,67.66_55.28
25.03455877304077,45.51,0.02,6.69,-0.58,0.51,1.38,2.05,2.67,106.71,117.61,26.71_71.78,34.36_91.45,54.90_100.68,75.59_91.13,82.83_71.41,31.87_45.46,39.23_40.50,48.82_43.06,61.05_42.99,70.62_40.53,77.97_45.82,54.92_50.96,54.98_65.57,48.93_69.72,54.95_70.89,61.03_69.69,36.40_52.92,47.85_52.50,61.99_52.47,73.45_52.97,42.51_80.70,51.62_76.72,54.92_77.60,58.23_76.68,67.06_80.48,61.53_83.40,54.76_84.59,47.93_83.38,54.89_79.83,54.80_81.53,41.59_50.86,41.65_54.01,68.37_50.83,68.06_54.01
25.235383987426758,4.32,0.21,0.00,-7.21,0.55,1.14,1.92,8.07,104.81,104.60,26.31_68.12,33.68_87.02,53.68_95.24,74.17_86.73,81.88_67.94,31.22_45.55,38.65_41.95,47.47_44.21,59.91_44.34,68.99_41.75,76.49_45.68,53.93_51.99,54.14_64.76,48.02_68.16,54.11_69.72,60.21_68.09,35.42_51.95,46.28_51.98,61.10_51.82,72.25_51.87,42.12_79.80,50.77_76.88,53.99_77.87,57.20_76.81,65.39_79.58,59.98_80.73,53.61_81.04,47.25_80.66,53.88_80.43,53.74_78.26,40.37_50.06,40.34_53.66,66.98_49.77,66.93_53.43
25.436349868774414,0.18,0.42,0.00,-5.19,2.60,1.33,0.14,5.67,108.99,110.12,27.17_68.66,33.11_88.21,53.81_97.44,75.66_88.04,82.77_68.23,30.61_44.84,38.09_41.24,47.08_43.44,60.37_43.56,69.63_40.93,77.69_44.75,53.72_51.70,53.71_64.53,47.55_68.11,53.74_69.52,60.51_68.14,34.69_51.53,46.22_51.47,61.49_51.36,73.47_51.38,42.03_79.63,50.62_76.10,53.87_77.08,57.17_76.02,65.67_79.45,60.26_81.24,53.63_81.82,47.10_81.04,53.79_79.64,53.70_79.01,39.87_49.51,39.84_53.20,67.87_49.26,67.77_52.97
25.637407779693604,0.00,0.42,0.00,-3.69,1.30,0.93,0.73,6.81,107.19,109.16,26.44_68.78,33.33_88.19,53.81_97.78,74.70_87.81,81.74_68.15,30.69_45.59,37.85_41.78,46.61_43.75,60.10_44.02,69.30_41.62,76.99_45.84,53.53_52.27,53.76_63.79,47.25_67.09,53.84_68.51,60.61_66.97,34.52_51.89,45.77_51.79,61.12_51.67,72.83_51.81,41.72_79.34,50.62_75.85,53.89_76.80,57.21_75.71,65.36_79.09,60.00_81.08,53.31_81.79,46.75_80.92,53.81_79.34,53.47_79.05,39.55_49.82,39.65_53.48,67.34_49.55,67.22_53.23
25.83863091468811,0.00,0.41,0.00,-1.10,0.90,1.11,-0.81,4.30,112.10,110.55,25.75_69.73,32.99_88.31,54.45_96.43,76.17_87.84,83.69_69.20,30.53_43.75,38.00_39.61,47.24_41.84,61.78_41.82,71.26_39.46,78.95_43.66,54.50_50.18,54.66_63.55,47.92_67.14,54.69_68.51,61.56_67.04,34.38_51.11,46.41_50.74,62.46_50.57,74.86_50.90,41.94_78.66,51.44_75.23,54.62_76.20,57.79_75.10,66.78_78.21,60.77_79.45,54.28_79.94,47.62_79.51,54.55_79.03,54.29_76.79,39.89_48.98,39.88_52.52,69.21_48.69,68.92_52.23
26.039485931396484,0.00,0.43,0.00,-4.35,2.47,0.16,0.21,5.42,107.84,107.06,27.56_67.26,34.28_85.53,54.06_94.64,74.87_84.71,82.01_66.08,30.36_44.09,37.45_40.08,46.35_41.52,59.96_41.66,69.39_39.70,76.94_44.12,53.58_50.87,53.67_62.16,46.87_65.42,53.86_67.30,61.04_65.16,34.64_50.31,45.66_50.30,61.04_50.13,72.33_50.10,41.64_77.33,50.52_74.16,53.85_75.05,57.30_74.02,65.55_77.09,60.47_78.74,53.39_79.44,46.42_78.65,53.81_77.87,53.63_76.27,39.71_48.31,39.74_52.06,66.96_47.81,66.84_51.73
26.24065589904785,0.07,0.42,0.00,-7.70,-3.98,1.81,6.26,5.71,99.59,112.99,28.13_69.80,36.40_89.28,55.34_99.87,72.39_89.67,79.75_70.05,34.10_47.29,41.43_43.38,50.36_45.41,61.77_45.60,70.35_43.84,77.12_47.75,55.83_53.39,56.23_66.55,50.55_69.94,56.05_70.98,61.22_69.78,37.90_53.24,49.08_53.05,62.41_53.05,73.53_53.48,46.30_82.60,53.42_77.84,56.01_78.67,58.59_77.80,64.97_82.46,61.35_86.88,55.84_88.94,50.18_86.83,55.89_81.61,55.91_84.60,43.22_50.94,43.27_54.81,68.54_51.00,68.14_54.98
26.441478967666626,0.03,0.43,0.00,-10.70,-1.93,1.75,6.34,5.76,102.13,115.06,29.39_69.66,37.76_90.23,56.77_101.64,74.45_90.67,82.53_70.06,34.89_48.33,42.25_44.30,51.10_46.96,63.13_47.17,71.87_44.45,79.01_48.64,56.99_54.78,57.25_68.62,51.96_72.29,57.10_73.37,62.15_72.28,38.75_54.49,49.80_54.62,63.82_54.64,74.91_54.65,47.39_83.35,54.69_78.69,56.97_79.43,59.22_78.68,66.26_83.34,62.75_88.73,56.85_91.13,50.93_88.61,56.87_82.42,56.90_86.48,43.88_52.31,43.95_55.93,69.79_52.28,69.62_55.98
26.642194986343384,0.00,0.43,0.00,-8.19,-1.03,2.12,2.16,3.65,107.68,116.29,27.02_69.37,35.60_89.69,55.17_100.55,73.83_89.87,82.82_70.01,32.26_46.71,39.75_42.52,49.04_44.95,62.66_45.31,71.70_42.93,78.77_46.87,55.53_53.64,55.62_66.96,50.27_70.95,55.46_71.81,60.90_70.83,36.44_53.87,48.20_53.85,62.81_53.74,74.69_53.86,45.48_82.30,53.01_77.21,55.52_77.86,58.02_77.19,65.35_82.35,61.18_87.48,55.28_89.68,49.26_87.36,55.47_81.10,55.37_84.74,41.89_51.90,41.92_55.34,69.38_51.70,69.09_55.30
26.842736959457397,0.01,0.43,0.00,-7.83,1.04,1.43,5.36,5.90,102.27,111.35,30.17_69.07,38.54_88.48,55.79_98.70,73.66_88.28,82.76_69.39,33.95_47.43,41.27_43.52,50.05_45.67,61.89_45.85,70.76_43.60,78.12_47.45,56.01_54.03,56.05_65.89,50.66_69.36,56.06_70.42,61.72_69.25,37.95_53.44,48.85_53.67,62.73_53.62,73.80_53.43,46.37_82.03,53.44_76.25,55.99_76.85,58.58_76.24,65.40_81.79,61.86_86.96,55.87_89.63,49.75_86.91,55.91_79.94,56.02_84.88,43.11_51.59,43.17_55.14,68.52_51.40,68.42_55.00
27.044071912765503,0.15,0.42,0.00,-6.40,0.18,1.94,6.41,5.62,101.23,110.96,31.25_68.94,39.69_87.95,56.43_98.09,73.12_88.05,81.53_69.36,34.71_47.12,41.76_42.88,50.71_45.06,62.85_45.12,71.68_43.23,78.44_47.41,56.56_53.00,56.53_65.42,50.98_68.58,56.51_69.49,62.17_68.40,38.80_52.84,49.80_52.72,63.31_52.75,74.53_53.07,47.07_81.19,54.04_75.74,56.42_76.43,58.76_75.72,65.94_80.93,62.14_85.84,56.60_88.28,50.93_85.75,56.38_79.41,56.68_83.65,43.93_50.72,44.10_54.30,69.29_50.79,68.99_54.46
27.24501395225525,0.00,0.43,0.00,-5.77,-0.86,1.39,3.84,4.44,102.97,114.28,27.10_69.27,35.68_89.31,54.92_99.67,73.31_89.48,81.82_69.54,32.62_46.69,40.10_42.43,49.12_44.97,60.98_45.10,69.80_42.58,77.10_46.82,54.89_52.73,55.17_65.23,50.04_69.25,55.02_70.20,59.90_69.12,36.62_52.71,47.96_52.60,61.53_52.48,73.05_52.76,45.13_81.50,52.47_76.11,55.04_76.81,57.59_76.07,64.68_81.40,60.82_86.07,55.01_88.25,49.03_86.08,54.91_79.60,55.06_83.85,41.86_50.37,41.95_54.17,67.91_50.23,67.59_54.12
27.44582986831665,0.11,0.42,0.00,-9.09,1.47,1.06,3.62,8.07,104.67,101.28,30.19_68.01,37.29_85.79,55.61_92.48,74.52_85.33,81.85_68.19,32.87_46.79,40.32_42.44,49.53_44.20,61.56_43.96,70.76_42.19,78.09_46.64,55.63_53.60,55.38_65.69,49.03_68.76,55.58_70.29,62.03_68.39,37.87_52.99,48.59_53.35,62.57_53.20,73.69_52.58,44.71_80.91,52.18_76.34,55.30_77.03,58.52_76.33,66.19_80.40,62.24_83.02,55.77_83.89,49.06_83.14,55.38_79.82,55.79_80.04,43.00_51.02,43.04_54.93,68.39_50.62,68.41_54.63
